stop_id,stop_code,stop_name,stop_desc,stop_lat,stop_lon,zone_id,stop_url,location_type,parent_station,stop_timezone,wheelchair_boarding
1,0001,"Abramowskiego-Sienkiewicza",,51.754240,19.465450,1,,0,,,0
2,0081,"Brzeźna-Piotrkowska",,51.752860,19.460290,1,,0,,,0
3,0002,"Kochanówka",,51.804510,19.357840,1,,0,,,0
4,0003,"Aleksandrowska-Lechicka",,51.803560,19.363540,1,,0,,,0
5,0004,"Aleksandrowska-Szczecińska",,51.802790,19.367130,1,,0,,,0
6,0007,"Aleksandrowska-Szparagowa",,51.801140,19.375470,1,,0,,,0
7,0006,"Teofilów",,51.802410,19.368140,1,,0,,,0
8,0008,"Aleksandrowska-Kaczeńcowa",,51.799020,19.386070,1,,0,,,0
9,0010,"Aleksandrowska-Traktorowa",,51.797520,19.393630,1,,0,,,0
10,0009,"Aleksandrowska-Kaczeńcowa",,51.798670,19.388270,1,,0,,,0
11,0011,"Aleksandrowska-Traktorowa",,51.797220,19.395570,1,,0,,,0
12,0012,"Aleksandrowska-Bielicowa",,51.795840,19.402030,1,,0,,,0
13,0013,"Aleksandrowska-Bielicowa",,51.795660,19.403530,1,,0,,,0
14,0434,"Limanowskiego-Woronicza",,51.794050,19.410990,1,,0,,,0
16,1350,"Woronicza-Dw. Łódź Żabieniec",,51.792990,19.408500,1,,0,,,0
17,9013,"Limanowskiego-zajezdnia LIMANOWSKIEGO",,51.791660,19.425340,1,,0,,,0
19,0014,"Aleksandrowska-Bielicowa",,51.795970,19.401870,1,,0,,,0
20,0016,"Aleksandrowska-Traktorowa",,51.797320,19.394940,1,,0,,,0
21,0015,"Aleksandrowska-Bielicowa",,51.796290,19.401440,1,,0,,,0
22,1213,"Traktorowa-Aleksandrowska",,51.797120,19.394190,1,,0,,,0
23,0017,"Aleksandrowska-Traktorowa",,51.797950,19.393340,1,,0,,,0
24,1209,"Traktorowa-Sierpowa",,51.798990,19.394690,1,,0,,,0
25,0018,"Aleksandrowska-Kaczeńcowa",,51.798790,19.387640,1,,0,,,0
26,0239,"Kaczeńcowa-Aleksandrowska",,51.799470,19.387390,1,,0,,,0
27,0019,"Aleksandrowska-Kaczeńcowa",,51.799460,19.385620,1,,0,,,0
28,0020,"Aleksandrowska-Szparagowa",,51.800910,19.376960,1,,0,,,0
30,0021,"Aleksandrowska-Szczecińska",,51.802510,19.369040,1,,0,,,0
31,0022,"Aleksandrowska-Lechicka",,51.803660,19.363260,1,,0,,,0
32,0023,"Kochanówka",,51.804650,19.357080,1,,0,,,0
33,0024,"Armii Krajowej-Napierskiego NŻ",,51.746820,19.397910,1,,0,,,0
34,0432,"Kusocińskiego-Armii Krajowej",,51.749950,19.391340,1,,0,,,0
35,0025,"Armii Krajowej-Napierskiego NŻ",,51.747200,19.397410,1,,0,,,0
36,0946,"Retkińska-Wyszyńskiego",,51.749020,19.407450,1,,0,,,0
38,0026,"Augustów-Bacewicz NŻ",,51.750460,19.547660,1,,0,,,0
39,0027,"Augustów-Wujaka NŻ",,51.753380,19.550950,1,,0,,,0
40,0028,"Augustów-Rokicińska NŻ",,51.756690,19.553300,1,,0,,,0
41,0972,"Rokicińska-Lermontowa",,51.758680,19.549990,1,,0,,,0
42,0029,"Augustów-Rokicińska NŻ",,51.756780,19.553260,1,,0,,,0
43,0030,"Augustów-Wujaka NŻ",,51.753230,19.550700,1,,0,,,0
44,0031,"Augustów-Bacewicz NŻ",,51.751730,19.548900,1,,0,,,0
45,0900,"Widzew Czajkowskiego",,51.751710,19.541900,1,,0,,,0
46,0032,"Pabianicka-Chocianowicka",,51.705830,19.421800,1,,0,,,0
47,2019,"Pabianicka-Długa",,51.702990,19.418170,1,,0,,,0
48,0034,"Grabińska-Nowosolna",,51.794580,19.589830,1,,0,,,0
49,0043,"Grabińska-Grabińska 10 NŻ",,51.800680,19.590450,1,,0,,,0
50,0035,"Grabińska-Nowosolna",,51.794520,19.589690,1,,0,,,0
51,1278,"Wiączyńska-Nowosolna",,51.792710,19.591070,1,,0,,,0
52,0037,"Bieszczadzka-Kolumny NŻ",,51.707430,19.512650,1,,0,,,0
53,0230,"Józefów-Bieszczadzka NŻ",,51.706470,19.510850,1,,0,,,0
54,0038,"Bieszczadzka-Kolumny NŻ",,51.707680,19.512760,1,,0,,,0
55,0322,"Kolumny-Bronisin NŻ",,51.708010,19.517460,1,,0,,,0
56,0039,"Borowa-Siewna NŻ",,51.779870,19.409420,1,,0,,,0
57,1051,"Siewna-Krakowska NŻ",,51.779360,19.400520,1,,0,,,0
58,0040,"Boya Żeleńskiego-Sucharskiego",,51.790270,19.475630,1,,0,,,0
59,1335,"Wojska Polskiego-Sporna",,51.789230,19.479870,1,,0,,,0
60,0041,"Boya Żeleńskiego-Sucharskiego",,51.790470,19.474490,1,,0,,,0
61,0645,"Obr. Westerplatte-Organizacji WiN",,51.789260,19.467810,1,,0,,,0
62,0042,"Bratysławska-Wróblewskiego",,51.749320,19.423030,1,,0,,,0
63,0044,"Bratysławska-Wileńska",,51.752000,19.425100,1,,0,,,0
64,0059,"Grabińska-Podwodna NŻ",,51.806250,19.591010,1,,0,,,0
65,1595,"Bandurskiego-Dw. Łódź Kaliska",,51.755750,19.432860,1,,0,,,0
66,0045,"Bratysławska-Wróblewskiego",,51.749770,19.423290,1,,0,,,0
67,1380,"Wyszyńskiego-Waltera-Janke",,51.747430,19.417490,1,,0,,,0
69,0046,"Grabińska-Grabińska 10 NŻ",,51.801130,19.590360,1,,0,,,0
70,0047,"Broniewskiego-Kilińskiego",,51.731040,19.476550,1,,0,,,0
71,0048,"Broniewskiego-Kraszewskiego",,51.732180,19.481840,1,,0,,,0
73,0049,"Broniewskiego-Śmigłego-Rydza",,51.732390,19.486530,1,,0,,,0
74,0050,"Broniewskiego-Tatrzańska",,51.732980,19.492610,1,,0,,,0
75,0170,"Felińskiego-Konspiracyjnego WP",,51.732340,19.495890,1,,0,,,0
76,1161,"Tatrzańska-Dąbrowskiego",,51.738190,19.494900,1,,0,,,0
77,0107,"Dąbrowskiego-Kossaka",,51.736570,19.498080,1,,0,,,0
79,0052,"Broniewskiego-Kraszewskiego",,51.732370,19.481650,1,,0,,,0
80,0053,"Broniewskiego-Kilińskiego",,51.731060,19.475860,1,,0,,,0
81,1025,"Rzgowska-Bankowa",,51.729160,19.476320,1,,0,,,0
83,0716,"Paderewskiego-Tuszyńska",,51.728560,19.469140,1,,0,,,0
85,0714,"Paderewskiego-Rzgowska",,51.730310,19.473790,1,,0,,,0
86,0054,"Brukowa-Zbąszyńska NŻ",,51.795880,19.409360,1,,0,,,0
87,0055,"Brukowa-Pojezierska",,51.800110,19.410860,1,,0,,,0
88,1775,"Pojezierska-Elektrociepłownia EC3 NŻ",,51.799520,19.420100,1,,0,,,0
89,0056,"Brukowa-św. Teresy NŻ",,51.805240,19.411730,1,,0,,,0
90,1189,"Św. Teresy-Włókniarzy NŻ",,51.804460,19.424210,1,,0,,,0
91,0057,"Brukowa-Pojezierska",,51.801840,19.411210,1,,0,,,0
92,0058,"Limanowskiego-Dw. Łódź Żabieniec",,51.795090,19.407460,1,,0,,,0
93,0061,"Grabińska 40",,51.814220,19.591900,1,,0,,,0
94,0060,"Grabińska-Podwodna NŻ",,51.805840,19.590880,1,,0,,,0
95,3325,"Grabina-Grabina/Lipowa 1 NŻ",,51.819500,19.596750,2,,0,,,0
96,0062,"Grabińska 40",,51.813730,19.591670,1,,0,,,0
97,0063,"Brzezińska-Śnieżna NŻ",,51.795990,19.504080,1,,0,,,0
98,1786,"Brzezińska-CH M1",,51.796220,19.510820,1,,0,,,0
99,0064,"Brzezińska-Kerna NŻ",,51.796530,19.516060,1,,0,,,0
100,0065,"Brzezińska-Janosika",,51.796530,19.523530,1,,0,,,0
101,0066,"Brzezińska-Marmurowa",,51.795900,19.534050,1,,0,,,0
102,0218,"Janosika-Powstańców Śląskich",,51.792390,19.523700,1,,0,,,0
103,1486,"Zjazdowa-Beskidzka NŻ",,51.800750,19.529440,1,,0,,,0
105,0557,"Marmurowa-Beskidzka NŻ",,51.799220,19.536470,1,,0,,,0
112,0074,"Brzezińska-Karkonoska",,51.796060,19.548420,1,,0,,,0
114,0076,"Brzezińska-Marmurowa",,51.795990,19.535490,1,,0,,,0
115,0077,"Brzezińska-Janosika",,51.796680,19.523040,1,,0,,,0
116,0078,"Brzezińska-Kerna NŻ",,51.796600,19.511910,1,,0,,,0
117,0079,"Brzezińska-Śnieżna NŻ",,51.795790,19.501610,1,,0,,,0
118,1339,"Wojska Polskiego-Łomnicka NŻ",,51.793170,19.492610,1,,0,,,0
119,0080,"Brzeźna-Piotrkowska",,51.752790,19.460990,1,,0,,,0
121,1044,"Sienkiewicza-Pogotowie Ratunkowe",,51.754510,19.464160,1,,0,,,0
122,0929,"Radwańska-Wólczańska",,51.752500,19.456300,1,,0,,,0
123,0082,"Chocianowicka-Chocianowicka 199 NŻ",,51.708950,19.381800,1,,0,,,0
124,0083,"Chocianowicka-Chocianowicka 143 NŻ",,51.708360,19.391630,1,,0,,,0
125,0084,"Chocianowicka-Chocianowicka 95 NŻ",,51.707750,19.401790,1,,0,,,0
126,0085,"Chocianowicka-Chocianowicka 57 NŻ",,51.707220,19.410230,1,,0,,,0
127,0671,"Pabianicka-Chocianowicka",,51.706600,19.423500,1,,0,,,0
128,0086,"Chocianowicka-Chocianowicka 57 NŻ",,51.707320,19.410180,1,,0,,,0
129,0087,"Chocianowicka-Chocianowicka 95 NŻ",,51.707840,19.401560,1,,0,,,0
130,0088,"Chocianowicka-Chocianowicka 143 NŻ",,51.708380,19.392110,1,,0,,,0
131,0089,"Chocianowicka-Chocianowicka 199 NŻ",,51.709080,19.381610,1,,0,,,0
132,0519,"Łaskowice-Nad Dobrzynką NŻ",,51.709670,19.371500,1,,0,,,0
133,0090,"Cmentarna-Legionów",,51.775140,19.442790,1,,0,,,0
134,0636,"Legionów-Gdańska",,51.776050,19.446840,1,,0,,,0
135,0091,"Cmentarna-Legionów",,51.775280,19.442170,1,,0,,,0
136,0092,"Cmentarna-cm. Ogrodowa",,51.775720,19.437150,1,,0,,,0
138,0093,"Czechosłowacka-Mazowiecka",,51.772050,19.509380,1,,0,,,0
139,0094,"Czechosłowacka-Edwarda NŻ",,51.770420,19.515270,1,,0,,,0
140,0162,"Edwarda-Pomorska",,51.774350,19.520870,1,,0,,,0
141,0095,"Czechosłowacka-Edwarda NŻ",,51.770520,19.515380,1,,0,,,0
142,0096,"Czechosłowacka-Mazowiecka",,51.772170,19.509070,1,,0,,,0
143,0097,"Czechosłowacka-Niciarniana",,51.771760,19.506240,1,,0,,,0
144,0614,"Niciarniana-Dw. Łódź Niciarniana NŻ",,51.768390,19.506430,1,,0,,,0
145,0098,"Czerwona-Piotrkowska NŻ",,51.745700,19.458860,1,,0,,,0
147,0100,"Dąbrowskiego-Kilińskiego",,51.738310,19.480020,1,,0,,,0
148,0273,"Kilińskiego-Poznańska",,51.742470,19.477720,1,,0,,,0
149,0102,"Dąbrowskiego-Śmigłego-Rydza",,51.737490,19.488050,1,,0,,,0
150,0101,"Dąbrowskiego-Kilińskiego",,51.738300,19.479640,1,,0,,,0
151,0105,"Dąbrowskiego-Tatrzańska",,51.736950,19.495090,1,,0,,,0
152,1139,"Śmigłego Rydza-Grota-Roweckiego",,51.743510,19.489390,1,,0,,,0
154,1618,"Tatrzańska-Broniewskiego",,51.733980,19.493930,1,,0,,,0
155,0106,"Dąbrowskiego-Kossaka",,51.736510,19.499480,1,,0,,,0
156,0108,"Dąbrowskiego-Podhalańska",,51.736240,19.503060,1,,0,,,0
157,1630,"Dąbrowskiego-Podhalańska",,51.736080,19.503560,1,,0,,,0
158,0114,"Dąbrowskiego-Dw. Łódź Dąbrowa",,51.735590,19.509200,1,,0,,,0
159,0109,"Dąbrowskiego-Ossendowskiego NŻ",,51.735430,19.515750,1,,0,,,0
160,0110,"Dąbrowskiego-Lodowa",,51.734880,19.522120,1,,0,,,0
161,0470,"Lodowa-Lodowa 91 NŻ",,51.736520,19.524490,1,,0,,,0
162,1196,"Tomaszowska-Bławatna NŻ",,51.732100,19.529910,1,,0,,,0
163,1857,"Dąbrowskiego-Tomaszowska NŻ",,51.734190,19.530380,1,,0,,,0
164,0111,"Dąbrowskiego-Tomaszowska NŻ",,51.734950,19.528430,1,,0,,,0
165,0112,"Dąbrowskiego-Lodowa",,51.735190,19.523340,1,,0,,,0
166,0479,"Lodowa-Dąbrowskiego NŻ",,51.733280,19.523950,1,,0,,,0
167,0113,"Dąbrowskiego-Ossendowskiego NŻ",,51.735740,19.516070,1,,0,,,0
168,0202,"Gojawiczyńskiej-Dąbrowskiego",,51.735270,19.505000,1,,0,,,0
169,1631,"Dąbrowskiego-Podhalańska",,51.736330,19.504340,1,,0,,,0
170,0115,"Dw. Łódź Dąbrowa",,51.736260,19.509060,1,,0,,,0
171,0117,"Dąbrowskiego-Podhalańska",,51.736330,19.502950,1,,0,,,0
172,0118,"Dąbrowskiego-Kossaka",,51.736670,19.499220,1,,0,,,0
173,0120,"Dąbrowskiego-Tatrzańska",,51.737120,19.494020,1,,0,,,0
174,0119,"Dąbrowskiego-Kossaka",,51.736780,19.499540,1,,0,,,0
176,0122,"Dąbrowskiego-Śmigłego-Rydza",,51.737500,19.489580,1,,0,,,0
177,0123,"Dąbrowskiego-Kilińskiego",,51.738660,19.477490,1,,0,,,0
178,0126,"Dąbrowskiego-Rzgowska",,51.738720,19.467750,1,,0,,,0
180,0127,"Dąbrowskiego-Rzgowska",,51.738660,19.468050,1,,0,,,0
181,0795,"pl. Niepodległości",,51.739900,19.463580,1,,0,,,0
182,0688,"Pabianicka-Wólczańska",,51.735990,19.458770,1,,0,,,0
183,0686,"Piotrkowska-pl. Niepodległości",,51.741010,19.462640,1,,0,,,0
184,0796,"pl. Niepodległości",,51.739900,19.463470,1,,0,,,0
185,1021,"Rzgowska-Lecznicza",,51.734430,19.470930,1,,0,,,0
187,0128,"Starorudzka-Demokratyczna",,51.710240,19.437840,1,,0,,,0
188,0129,"Demokratyczna-Dzwonowa",,51.710630,19.444170,1,,0,,,0
189,0246,"Ekonomiczna-Starorudzka NŻ",,51.706670,19.439520,1,,0,,,0
190,0130,"Demokratyczna-Matowa NŻ",,51.711460,19.450740,1,,0,,,0
191,0131,"Demokratyczna-Demokratyczna 117 NŻ",,51.711840,19.458980,1,,0,,,0
192,0722,"Demokratyczna-Bartoszewskiego",,51.711690,19.463610,1,,0,,,0
193,0132,"Demokratyczna-Bartoszewskiego NŻ",,51.711950,19.460730,1,,0,,,0
194,0133,"Demokratyczna-Matowa NŻ",,51.711490,19.450190,1,,0,,,0
195,0134,"Demokratyczna-Dzwonowa",,51.710870,19.445300,1,,0,,,0
196,0135,"Demokratyczna-Starorudzka",,51.709830,19.437080,1,,0,,,0
197,0204,"Gombrowicza-Pabianicka NŻ",,51.713230,19.431890,1,,0,,,0
199,0489,"Łagiewnicka-Kowalska",,51.795230,19.455560,1,,0,,,0
201,1465,"Zgierska-Dolna",,51.789810,19.449130,1,,0,,,0
202,0138,"DK nr 71-Łagiewniki Nowe NŻ",,51.851280,19.465980,1,,0,,,0
203,0174,"DK nr 71-Przyklasztorze NŻ",,51.853590,19.473320,1,,0,,,0
204,0139,"DK nr 71-Łagiewniki Nowe NŻ",,51.850370,19.462750,1,,0,,,0
205,1854,"Okólna-Secesyjna NŻ",,51.847960,19.460620,1,,0,,,0
208,0142,"Drewnowska-Piwna",,51.781080,19.443080,1,,0,,,0
209,1400,"Zachodnia-Legionów",,51.777900,19.451700,1,,0,,,0
211,0144,"Drewnowska-Piwna",,51.781310,19.443550,1,,0,,,0
214,0262,"Kasprzaka-Kutrzeby",,51.784510,19.426480,1,,0,,,0
215,0148,"Bionanopark",,51.718410,19.411920,1,,0,,,0
216,0149,"Dubois-Pusta NŻ",,51.719880,19.415360,1,,0,,,0
218,0151,"Dubois-Pabianicka",,51.715570,19.431810,1,,0,,,0
219,1622,"Rudzka-Pabianicka",,51.710610,19.428910,1,,0,,,0
220,0677,"Pabianicka-3 Maja",,51.718510,19.437580,1,,0,,,0
221,0675,"Pabianicka-Dubois",,51.715480,19.434070,1,,0,,,0
222,0700,"Pabianicka-Rudzka",,51.711630,19.428520,1,,0,,,0
223,0673,"Pabianicka-Rudzka",,51.711470,19.429070,1,,0,,,0
224,0152,"Dubois-Pabianicka",,51.715460,19.432390,1,,0,,,0
225,0153,"Dubois-Hoffmanowej NŻ",,51.718400,19.423800,1,,0,,,0
226,1872,"Pokładowa-Świętojańska NŻ",,51.719240,19.431810,1,,0,,,0
227,0154,"Dubois-Pusta NŻ",,51.720290,19.416260,1,,0,,,0
229,0644,"Obr. Westerplatte-Organizacji WiN",,51.788540,19.467930,1,,0,,,0
231,1869,"Bałucki Rynek-Bałucki Rynek",,51.787550,19.453730,1,,0,,,0
233,0159,"Dw. Północny",,51.783670,19.466660,1,,0,,,0
234,0160,"Pomorska-CKD szpital",,51.777470,19.502630,1,,0,,,0
235,1167,"Telefoniczna Zajezdnia",,51.781430,19.506750,1,,0,,,0
236,0161,"Pomorska-CKD szpital",,51.777350,19.502310,1,,0,,,0
237,0847,"Pomorska-Konstytucyjna",,51.777430,19.497150,1,,0,,,0
238,0832,"Pomorska-Kasprowy Wierch NŻ",,51.773550,19.534460,1,,0,,,0
239,1894,"Krokusowa-Zrębowa NŻ",,51.776990,19.522460,1,,0,,,0
240,0163,"Edwarda-Pomorska",,51.774390,19.520730,1,,0,,,0
241,0164,"Elektronowa-Obywatelska NŻ",,51.738300,19.425230,1,,0,,,0
242,0647,"Obywatelska-Elektronowa NŻ",,51.737120,19.427550,1,,0,,,0
243,1679,"Pienista-Obywatelska",,51.740630,19.416830,1,,0,,,0
246,0165,"Elektronowa-Elektronowa 8 NŻ",,51.741530,19.426490,1,,0,,,0
247,0166,"Fabryczna-Targowa NŻ",,51.756140,19.474150,1,,0,,,0
248,0167,"Fabryczna-Przędzalniana NŻ",,51.757540,19.481350,1,,0,,,0
249,0882,"Przędzalniana-Tymienieckiego NŻ",,51.753450,19.484370,1,,0,,,0
250,0168,"Fabryczna-Przędzalniana NŻ",,51.757610,19.481070,1,,0,,,0
251,0169,"Fabryczna-Kilińskiego NŻ",,51.755780,19.471780,1,,0,,,0
252,1131,"Śląska-Konspiracyjnego WP",,51.727880,19.498860,1,,0,,,0
253,0171,"Felińskiego-Kadłubka",,51.732230,19.500560,1,,0,,,0
254,1783,"Felińskiego-Gojawiczyńskiej",,51.732290,19.503890,1,,0,,,0
255,0201,"Gojawiczyńskiej-Dąbrowskiego",,51.734780,19.504980,1,,0,,,0
256,0172,"Felińskiego-Kadłubka",,51.732290,19.500460,1,,0,,,0
257,0173,"Felińskiego-Konspiracyjnego WP",,51.732290,19.497880,1,,0,,,0
258,0176,"DK nr 71-Godlewskiego NŻ",,51.856150,19.481360,1,,0,,,0
259,0175,"DK nr 71-Przyklasztorze NŻ",,51.853680,19.473300,1,,0,,,0
260,0178,"Łódź Skotniki",,51.858840,19.490630,1,,0,,,0
261,0177,"DK nr 71-Godlewskiego NŻ",,51.856060,19.480720,1,,0,,,0
262,0180,"Św. Franciszka-Czahary",,51.727030,19.422700,1,,0,,,0
263,1865,"Czahary-Prądzyńskiego NŻ",,51.723720,19.423210,1,,0,,,0
264,0182,"Św. Franciszka-Zenitowa",,51.727050,19.431460,1,,0,,,0
265,0183,"Franciszkańska-Wojska Polskiego",,51.784330,19.460390,1,,0,,,0
266,1330,"Wojska Polskiego-Marynarska",,51.785660,19.465530,1,,0,,,0
267,0792,"pl. Kościelny",,51.783540,19.453730,1,,0,,,0
268,0184,"Franciszkańska-Wojska Polskiego",,51.784180,19.460530,1,,0,,,0
269,1331,"Wojska Polskiego-Marynarska",,51.785540,19.465700,1,,0,,,0
270,0189,"Franciszkańska-Północna",,51.780000,19.461260,1,,0,,,0
271,0295,"Kilińskiego-Pomorska",,51.777760,19.461770,1,,0,,,0
272,0865,"Północna-Nowomiejska",,51.779000,19.454780,1,,0,,,0
274,0866,"Północna-Nowomiejska",,51.779120,19.455250,1,,0,,,0
275,0191,"Gajcego-Gajcego 121 NŻ",,51.752670,19.630520,1,,0,,,0
277,0192,"Gajcego-Gajcego 121 NŻ",,51.752420,19.630020,1,,0,,,0
278,0933,"Rataja-Gajcego NŻ",,51.748700,19.623050,1,,0,,,0
279,0193,"Gdańska-Struga",,51.763990,19.450320,1,,0,,,0
280,0194,"Gdańska-Zielona",,51.769560,19.449130,1,,0,,,0
281,0195,"Gdańska-1 Maja",,51.772870,19.448420,1,,0,,,0
283,0196,"Gdańska-Legionów",,51.775800,19.447750,1,,0,,,0
284,0637,"Legionów-Zachodnia",,51.776450,19.451640,1,,0,,,0
286,0197,"Gdańska-1 Maja",,51.773320,19.448140,1,,0,,,0
287,0198,"Gdańska-Zielona",,51.770210,19.448890,1,,0,,,0
288,0199,"Gdańska-Struga",,51.765160,19.449860,1,,0,,,0
289,0377,"Kopernika-Żeromskiego",,51.762260,19.448090,1,,0,,,0
290,0200,"Zbocze-Giewont",,51.778680,19.528230,1,,0,,,0
291,1178,"Telefoniczna-Pieniny",,51.782950,19.525120,1,,0,,,0
292,1263,"Ossendowskiego-Dąbrowskiego NŻ",,51.735060,19.515040,1,,0,,,0
293,1621,"Dw. Łódź Dąbrowa",,51.736440,19.508780,1,,0,,,0
294,1917,"Felińskiego-Gojawiczyńskiej",,51.732660,19.503770,1,,0,,,0
295,0205,"Hipoteczna-Olsztyńska",,51.794940,19.432110,1,,0,,,0
297,0805,"Pojezierska-Sierakowskiego",,51.797820,19.436680,1,,0,,,0
298,0206,"Hipoteczna-Olsztyńska",,51.795520,19.432120,1,,0,,,0
299,0207,"Hipoteczna-Limanowskiego",,51.790840,19.430320,1,,0,,,0
300,0263,"Kasprzaka-Kutrzeby",,51.784420,19.426280,1,,0,,,0
301,0487,"Lutomierska-Klonowa",,51.788200,19.427290,1,,0,,,0
302,0208,"Inflancka-r. Powstańców 1863r.",,51.800720,19.458340,1,,0,,,0
304,0209,"Inflancka-Marysińska",,51.800450,19.466370,1,,0,,,0
305,0210,"Inflancka-Gibalskiego",,51.800180,19.472460,1,,0,,,0
306,1405,"Zagajnikowa-Inflancka",,51.799390,19.476820,1,,0,,,0
307,1110,"Strykowska-Inflancka",,51.797350,19.487670,1,,0,,,0
308,1355,"Wycieczkowa-Strykowska",,51.801180,19.488870,1,,0,,,0
309,0211,"Inflancka-Gibalskiego",,51.800480,19.471250,1,,0,,,0
310,0212,"Inflancka-Marysińska",,51.800730,19.465060,1,,0,,,0
311,0213,"Inflancka-r. Powstańców 1863r.",,51.801070,19.458410,1,,0,,,0
313,0494,"r. Powstańców 1863r.",,51.801240,19.459370,1,,0,,,0
314,0236,"Julianowska-Żarnowcowa",,51.799660,19.451260,1,,0,,,0
315,1750,"Łagiewnicka-r. Powstańców 1863r.",,51.800400,19.457210,1,,0,,,0
316,0214,"Janosika-Pszczyńska NŻ",,51.779240,19.521760,1,,0,,,0
317,0215,"Janosika-Telefoniczna",,51.782660,19.522360,1,,0,,,0
318,0216,"Janosika-Wyżynna",,51.787750,19.523680,1,,0,,,0
319,0217,"Janosika-Powstańców Śląskich",,51.791990,19.524370,1,,0,,,0
320,0219,"Janosika-Wyżynna",,51.787820,19.523480,1,,0,,,0
321,0220,"Janosika-Telefoniczna",,51.782440,19.522160,1,,0,,,0
322,1180,"Telefoniczna-Weselna",,51.783340,19.519890,1,,0,,,0
323,0221,"Janosika-Pszczyńska NŻ",,51.779850,19.521700,1,,0,,,0
324,1895,"Krokusowa-Zrębowa NŻ",,51.777220,19.522400,1,,0,,,0
325,0222,"Jaracza-Wierzbowa",,51.774640,19.477840,1,,0,,,0
327,1083,"Sterlinga-Pomorska",,51.777250,19.468940,1,,0,,,0
328,0223,"Jaracza-P.O.W.",,51.773700,19.467050,1,,0,,,0
329,0224,"Jaracza-Kilińskiego",,51.773270,19.461950,1,,0,,,0
330,0225,"Jaracza-Piotrkowska",,51.772780,19.456060,1,,0,,,0
331,1288,"Więckowskiego-Gdańska",,51.772050,19.448040,1,,0,,,0
332,1390,"Zachodnia-Legionów",,51.775550,19.452510,1,,0,,,0
333,0226,"Józefów-Rzgowska NŻ",,51.706920,19.489100,1,,0,,,0
334,0227,"Józefów-Nowe Górki NŻ",,51.706460,19.495580,1,,0,,,0
335,0228,"Józefów-Józefów 60 NŻ",,51.706320,19.504690,1,,0,,,0
336,0229,"Józefów-Bieszczadzka NŻ",,51.706410,19.510280,1,,0,,,0
337,0231,"Józefów-Józefów 60 NŻ",,51.706370,19.505040,1,,0,,,0
338,0232,"Józefów-Nowe Górki NŻ",,51.706520,19.496260,1,,0,,,0
339,0233,"Józefów-Rzgowska NŻ",,51.707100,19.487580,1,,0,,,0
340,0998,"Rzgowska-Paradna",,51.708660,19.487670,1,,0,,,0
341,0234,"Julianowska-Zgierska",,51.797660,19.445500,1,,0,,,0
342,0235,"Julianowska-Żarnowcowa",,51.799640,19.452580,1,,0,,,0
343,1930,"Warszawska-Irysowa NŻ",,51.803330,19.463310,1,,0,,,0
344,0237,"Pojezierska-Zgierska",,51.797360,19.443320,1,,0,,,0
345,0806,"Pojezierska-Sierakowskiego",,51.797770,19.437820,1,,0,,,0
346,0238,"Kaczeńcowa-Lniana",,51.795990,19.385530,1,,0,,,0
347,0240,"Kaczeńcowa-Wersalska NŻ",,51.803640,19.388740,1,,0,,,0
348,0241,"Kaczeńcowa-św. Teresy NŻ",,51.808590,19.391330,1,,0,,,0
349,1194,"Św. Teresy-Kaczeńcowa NŻ",,51.809860,19.389590,1,,0,,,0
350,0242,"Kaczeńcowa-Wersalska NŻ",,51.803210,19.388530,1,,0,,,0
351,0243,"Kaczeńcowa-Warecka NŻ",,51.800100,19.387390,1,,0,,,0
352,0244,"Kaczeńcowa-Aleksandrowska",,51.798040,19.386340,1,,0,,,0
353,0956,"Rojna-Kaczeńcowa",,51.793510,19.385640,1,,0,,,0
354,0249,"Ekonomiczna-Żwawa NŻ",,51.707390,19.445190,1,,0,,,0
356,0807,"Pojezierska-Grunwaldzka",,51.798450,19.431540,1,,0,,,0
357,0252,"Ekonomiczna-Kwaterunkowa NŻ",,51.708050,19.450450,1,,0,,,0
358,0250,"Ekonomiczna-Żwawa NŻ",,51.707690,19.446690,1,,0,,,0
359,0413,"Ekonomiczna-Starorudzka NŻ",,51.706790,19.440070,1,,0,,,0
360,0251,"Ekonomiczna-Kwaterunkowa NŻ",,51.708270,19.451250,1,,0,,,0
361,0253,"Ekonomiczna-Graniczna NŻ",,51.708680,19.455610,1,,0,,,0
363,0254,"Ekonomiczna-Graniczna NŻ",,51.708680,19.454850,1,,0,,,0
364,0257,"Karolewska-Wileńska",,51.752540,19.425350,1,,0,,,0
365,0259,"Kasprzaka-Legionów",,51.770480,19.429040,1,,0,,,0
366,0260,"Kasprzaka-Srebrzyńska",,51.773990,19.427410,1,,0,,,0
367,0261,"Kasprzaka-Drewnowska",,51.780640,19.427020,1,,0,,,0
368,1237,"Unii Lubelskiej-Praussa",,51.776690,19.415120,1,,0,,,0
369,1229,"Kutrzeby-Odolanowska",,51.785000,19.431740,1,,0,,,0
370,0317,"Klonowa-Limanowskiego",,51.790030,19.430020,1,,0,,,0
371,0264,"Kasprzaka-Drewnowska",,51.780320,19.426850,1,,0,,,0
372,0265,"Kasprzaka-Srebrzyńska",,51.774770,19.427210,1,,0,,,0
373,0266,"Kasprzaka-Legionów",,51.770480,19.428820,1,,0,,,0
374,0522,"1 Maja-Żeligowskiego",,51.770640,19.437090,1,,0,,,0
375,0267,"Dw. Łódź Chojny",,51.727840,19.479490,1,,0,,,0
376,0268,"Dw. Łódź Chojny",,51.727750,19.480090,1,,0,,,0
377,0270,"Kilińskiego-Broniewskiego",,51.731280,19.479110,1,,0,,,0
378,0271,"Kilińskiego-Dąbrowskiego",,51.739390,19.478750,1,,0,,,0
379,0276,"Kilińskiego-Przybyszewskiego",,51.744990,19.476340,1,,0,,,0
380,0275,"Kilińskiego-Przybyszewskiego",,51.744950,19.476350,1,,0,,,0
381,0915,"Przybyszewskiego-Brzozowa",,51.744260,19.469660,1,,0,,,0
382,0277,"Kilińskiego-Senatorska",,51.747680,19.475030,1,,0,,,0
383,0885,"Przybyszewskiego-Łęczycka",,51.746910,19.483990,1,,0,,,0
385,0279,"Kilińskiego-Tymienieckiego",,51.752090,19.473030,1,,0,,,0
386,0280,"Kilińskiego-Tymienieckiego",,51.752140,19.472810,1,,0,,,0
387,0282,"Kilińskiego-Fabryczna",,51.755030,19.471320,1,,0,,,0
389,0284,"Kilińskiego-Piłsudskiego",,51.759810,19.469050,1,,0,,,0
391,0286,"Kilińskiego-Nawrot",,51.762670,19.467660,1,,0,,,0
392,0763,"Piłsudskiego-Sienkiewicza",,51.759790,19.463310,1,,0,,,0
394,0288,"Kilińskiego-Tuwima",,51.766070,19.465910,1,,0,,,0
396,0290,"Kilińskiego-Przystanek mBank",,51.769110,19.464580,1,,0,,,0
397,1228,"Tuwima-Sienkiewicza",,51.765900,19.461120,1,,0,,,0
398,0291,"Kilińskiego-Narutowicza",,51.771720,19.463280,1,,0,,,0
399,0292,"Kilińskiego-Rewolucji 1905r.",,51.775100,19.462430,1,,0,,,0
401,0293,"Kilińskiego-Pomorska",,51.776960,19.461990,1,,0,,,0
402,0294,"Kilińskiego-Północna",,51.779150,19.461560,1,,0,,,0
403,0826,"Pomorska-Sterlinga",,51.777920,19.468400,1,,0,,,0
404,0855,"pl. Wolności",,51.777110,19.455050,1,,0,,,0
405,0296,"Kilińskiego-Rewolucji 1905r.",,51.774510,19.462490,1,,0,,,0
406,0297,"Kilińskiego-Narutowicza",,51.771630,19.463150,1,,0,,,0
407,0298,"Kilińskiego-Przystanek mBank",,51.768590,19.464680,1,,0,,,0
409,0300,"Kilińskiego-Tuwima",,51.765440,19.466080,1,,0,,,0
411,0762,"Piłsudskiego-Kilińskiego",,51.760320,19.467460,1,,0,,,0
412,0301,"Kilińskiego-Piłsudskiego",,51.760690,19.468440,1,,0,,,0
413,0303,"Kilińskiego-Fabryczna",,51.755750,19.470820,1,,0,,,0
414,0737,"Piłsudskiego-Targowa",,51.760660,19.474380,1,,0,,,0
417,0306,"Kilińskiego-Tymienieckiego",,51.751820,19.473050,1,,0,,,0
419,0307,"Kilińskiego-Tymienieckiego",,51.751010,19.473290,1,,0,,,0
420,0308,"Kilińskiego-Senatorska",,51.748120,19.474640,1,,0,,,0
422,0310,"Kilińskiego-Przybyszewskiego",,51.745930,19.475750,1,,0,,,0
424,0312,"Kilińskiego-Poznańska",,51.742570,19.477540,1,,0,,,0
425,0313,"Kilińskiego-Poznańska NŻ",,51.742570,19.477390,1,,0,,,0
426,0314,"Kilińskiego-Dąbrowskiego",,51.737810,19.478580,1,,0,,,0
428,0316,"Kilińskiego-Broniewskiego",,51.733200,19.478610,1,,0,,,0
431,0464,"Liściasta-cm. Radogoszcz",,51.806620,19.438000,1,,0,,,0
432,1052,"Sikorskiego-Zgierska",,51.815580,19.435810,1,,0,,,0
434,0323,"Kolumny-Wrzecionowa NŻ",,51.708730,19.523380,1,,0,,,0
435,0324,"Kolumny-Kolumny 242 NŻ",,51.709720,19.531100,1,,0,,,0
436,0325,"Kolumny-Cierniówki NŻ",,51.710530,19.537190,1,,0,,,0
437,0326,"Kolumny-Tomaszowska",,51.711680,19.543450,1,,0,,,0
438,1201,"Tomaszowska-Małego Rycerza NŻ",,51.716830,19.541590,1,,0,,,0
439,0327,"Kolumny-Kalinowskiego",,51.712350,19.551460,1,,0,,,0
440,0345,"Kolumny-Morenowa NŻ",,51.714850,19.556150,1,,0,,,0
441,0328,"Kolumny-Mahoniowa NŻ",,51.716340,19.563720,1,,0,,,0
442,0329,"Kolumny-Ogrodnicza NŻ",,51.714540,19.573940,1,,0,,,0
443,0330,"Kolumny-Mozaikowa NŻ",,51.711850,19.585360,1,,0,,,0
444,0331,"Kolumny-Platanowa NŻ",,51.709550,19.597350,1,,0,,,0
445,1796,"Kolumny-Autostrada A1 NŻ",,51.708710,19.600680,1,,0,,,0
446,0332,"Kolumny-Czajewskiego NŻ",,51.704210,19.611550,1,,0,,,0
449,0334,"Kolumny-Czajewskiego NŻ",,51.704670,19.610650,1,,0,,,0
450,1797,"Kolumny-Autostrada A1 NŻ",,51.708660,19.600640,1,,0,,,0
451,0335,"Kolumny-Platanowa NŻ",,51.709800,19.596180,1,,0,,,0
452,0336,"Kolumny-Mozaikowa NŻ",,51.712090,19.584630,1,,0,,,0
453,0337,"Kolumny-Ogrodnicza NŻ",,51.714740,19.573510,1,,0,,,0
454,0338,"Kolumny-Mahoniowa NŻ",,51.716380,19.563480,1,,0,,,0
455,0346,"Kolumny-Morenowa NŻ",,51.715140,19.556350,1,,0,,,0
456,0339,"Kolumny-Kalinowskiego",,51.712340,19.550690,1,,0,,,0
457,0340,"Kolumny-Tomaszowska",,51.711720,19.543390,1,,0,,,0
458,0341,"Kolumny-Cierniówki NŻ",,51.710600,19.537270,1,,0,,,0
459,0342,"Kolumny-Kolumny 242 NŻ",,51.709920,19.531920,1,,0,,,0
460,0343,"Kolumny-Wrzecionowa NŻ",,51.708990,19.524760,1,,0,,,0
461,0344,"Kolumny-Bronisin NŻ",,51.708140,19.517920,1,,0,,,0
462,0349,"Dw. Łódź Widzew",,51.762570,19.542970,1,,0,,,0
463,0372,"Puszkina-Rondo Inwalidów",,51.761900,19.536620,1,,0,,,0
464,0350,"Krzemieniecka-Konstantynowska (ZOO Orien",,51.761760,19.408570,1,,0,,,0
465,1850,"Retkińska-Krzemieniecka",,51.757360,19.414270,1,,0,,,0
466,0411,"Krzemieniecka-Retkińska",,51.757430,19.415950,1,,0,,,0
467,0351,"Konstantynowska-ZOO Orientarium",,51.764020,19.412050,1,,0,,,0
468,0352,"Konstantynowska-Unii Lubelskiej (Fala)",,51.767110,19.420740,1,,0,,,0
469,0630,"Legionów-Włókniarzy",,51.769210,19.426990,1,,0,,,0
470,0353,"Konstantynowska-Unii Lubelskiej (Fala)",,51.767100,19.420470,1,,0,,,0
471,0354,"Konstantynowska-ZOO Orientarium",,51.764260,19.412530,1,,0,,,0
472,0355,"Konstantynowska-Krakowska",,51.763060,19.409150,1,,0,,,0
474,0356,"Służbowa-Dw. Łódź Widzew",,51.762640,19.542430,1,,0,,,0
475,0358,"Dw. Łódź Widzew",,51.762540,19.541680,1,,0,,,0
476,0359,"Konstytucyjna-Małachowskiego NŻ",,51.771520,19.499160,1,,0,,,0
477,0595,"Narutowicza-Radiostacja",,51.774200,19.495000,1,,0,,,0
478,0360,"Pomorska-Konstytucyjna",,51.777340,19.497240,1,,0,,,0
479,0362,"Kopcińskiego-Tuwima",,51.767470,19.483900,1,,0,,,0
480,0364,"Kopcińskiego-Narutowicza",,51.772540,19.482880,1,,0,,,0
481,0363,"Kopcińskiego-Tuwima",,51.767340,19.484100,1,,0,,,0
482,0365,"Kopcińskiego-Narutowicza",,51.771870,19.483120,1,,0,,,0
483,0590,"Narutowicza-Matejki (kampus UŁ)",,51.773410,19.488400,1,,0,,,0
484,0600,"Narutowicza-Tramwajowa",,51.772530,19.477020,1,,0,,,0
486,0366,"Kopcińskiego-Rondo Solidarności",,51.777980,19.481850,1,,0,,,0
487,1090,"Palki-Źródłowa",,51.781460,19.483200,1,,0,,,0
488,0368,"Kopcińskiego-Narutowicza",,51.772100,19.482770,1,,0,,,0
489,0370,"Kopcińskiego-Tuwima",,51.767250,19.483680,1,,0,,,0
490,0369,"Kopcińskiego-Tuwima",,51.767210,19.483820,1,,0,,,0
491,0371,"Śmigłego Rydza-Piłsudskiego",,51.760610,19.485800,1,,0,,,0
492,1219,"Tuwima-Rodz. Kindermannów NŻ",,51.767680,19.482440,1,,0,,,0
494,1874,"Przędzalniana-Nawrot",,51.764980,19.480400,1,,0,,,0
495,0740,"Piłsudskiego-Śmigłego-Rydza",,51.761500,19.486900,1,,0,,,0
496,0741,"Piłsudskiego-Sarnia",,51.762120,19.492610,1,,0,,,0
497,1149,"Śmigłego Rydza-Zbiorcza",,51.757780,19.488250,1,,0,,,0
498,0759,"Piłsudskiego-Przędzalniana",,51.761100,19.480040,1,,0,,,0
499,0923,"Puszkina-Chmielowskiego",,51.758440,19.535700,1,,0,,,0
500,0979,"Rokicińska-Maszynowa",,51.762550,19.528700,1,,0,,,0
501,0373,"Kopernika-Tobaco Park",,51.758010,19.437400,1,,0,,,0
502,0374,"Kopernika-Łąkowa",,51.759810,19.442230,1,,0,,,0
503,0376,"Kopernika-Żeromskiego",,51.761730,19.446960,1,,0,,,0
504,1519,"Żeromskiego-Mickiewicza",,51.758550,19.448210,1,,0,,,0
505,0378,"Kopernika-Łąkowa",,51.760320,19.443180,1,,0,,,0
506,0380,"Kopernika-Tobaco Park",,51.758450,19.438330,1,,0,,,0
507,1596,"Bandurskiego-Dw. Łódź Kaliska",,51.755780,19.432390,1,,0,,,0
508,1297,"Włókniarzy-Karolewska (Dw. Ł. Kaliska)",,51.758250,19.433500,1,,0,,,0
509,0570,"Mickiewicza-Żeromskiego",,51.758050,19.449240,1,,0,,,0
510,0381,"Służbowa-Dw. Łódź Widzew",,51.761950,19.543300,1,,0,,,0
511,0409,"Augustów-Rokicińska NŻ",,51.759250,19.554300,1,,0,,,0
512,0382,"Służbowa-Dw. Łódź Widzew",,51.762280,19.542250,1,,0,,,0
513,0383,"Kosynierów Gdyńskich-Wczesna NŻ",,51.715470,19.475420,1,,0,,,0
514,0384,"Kosynierów Gdyńskich-Królewska",,51.713560,19.481840,1,,0,,,0
515,0999,"Rzgowska-św. Wojciecha",,51.714060,19.486820,1,,0,,,0
516,0385,"Kosynierów Gdyńskich-Królewska",,51.713800,19.481340,1,,0,,,0
517,0386,"Kosynierów Gdyńskich-Wczesna NŻ",,51.715290,19.476150,1,,0,,,0
518,1845,"Kosynierów Gdyńskich-Łazowskiego",,51.716970,19.471990,1,,0,,,0
519,0387,"Kosynierów Gdyńskich-Trybunalska",,51.718190,19.468930,1,,0,,,0
520,1218,"Trybunalska-Kwietniowa NŻ",,51.714130,19.466120,1,,0,,,0
521,0389,"Kościuszki-Mickiewicza",,51.758550,19.455910,1,,0,,,0
522,0391,"Kościuszki-Zamenhofa",,51.761900,19.455180,1,,0,,,0
523,0577,"Mickiewicza-Żeromskiego",,51.758100,19.448970,1,,0,,,0
524,0390,"Kościuszki-Mickiewicza",,51.760060,19.455780,1,,0,,,0
525,1086,"Struga-Gdańska",,51.764960,19.449480,1,,0,,,0
527,0392,"Kościuszki-Struga",,51.766010,19.454260,1,,0,,,0
528,0394,"Kościuszki-6 Sierpnia",,51.768620,19.453740,1,,0,,,0
530,1924,"Kościuszki-6 Sierpnia",,51.767850,19.454050,1,,0,,,0
531,1389,"Zachodnia-Więckowskiego",,51.772740,19.453000,1,,0,,,0
534,0395,"Kościuszki-6 Sierpnia",,51.767840,19.453700,1,,0,,,0
538,1422,"Zamenhofa-Piotrkowska",,51.762170,19.456370,1,,0,,,0
539,0400,"Kościuszki-Mickiewicza",,51.758550,19.455730,1,,0,,,0
540,0397,"Kościuszki-Struga",,51.764540,19.454470,1,,0,,,0
541,0398,"Kościuszki-Zamenhofa",,51.762310,19.455000,1,,0,,,0
542,0399,"Kościuszki-Mickiewicza",,51.758590,19.455830,1,,0,,,0
543,0572,"Piotrkowska Centrum",,51.759240,19.457620,1,,0,,,0
544,0401,"Piotrkowska-Żwirki",,51.756140,19.459160,1,,0,,,0
545,1702,"Kościuszki-Radwańska",,51.753270,19.456890,1,,0,,,0
546,0770,"Piotrkowska-Brzeźna",,51.753010,19.459760,1,,0,,,0
547,0402,"Krakowska-Minerska",,51.764870,19.404680,1,,0,,,0
548,0403,"Krakowska-Michałowicza NŻ",,51.769690,19.401930,1,,0,,,0
549,0404,"Krakowska-Biegunowa",,51.774780,19.398740,1,,0,,,0
550,0405,"Krakowska-Siewna",,51.778500,19.399490,1,,0,,,0
551,1724,"Złotno-Kwiatowa NŻ",,51.779600,19.393410,1,,0,,,0
552,1206,"Traktorowa-Rąbieńska",,51.783750,19.391860,1,,0,,,0
553,0406,"Krakowska-Biegunowa",,51.775370,19.398660,1,,0,,,0
554,1073,"Srebrzyńska-cm. Mania",,51.775810,19.405300,1,,0,,,0
555,0407,"Krakowska-Michałowicza NŻ",,51.769600,19.401870,1,,0,,,0
556,1066,"Solec-cm. Mania",,51.776080,19.405290,1,,0,,,0
557,0408,"Krakowska-Minerska",,51.764500,19.404660,1,,0,,,0
558,1523,"Rokicińska-Augustów",,51.757190,19.554450,1,,0,,,0
559,0410,"Augustów-Rokicińska NŻ",,51.758440,19.554040,1,,0,,,0
560,0412,"Krzemieniecka-Kowieńska",,51.756360,19.420700,1,,0,,,0
561,1772,"Bandurskiego-Atlas Arena",,51.755540,19.426590,1,,0,,,0
562,1600,"Bandurskiego-Wileńska",,51.753890,19.421200,1,,0,,,0
563,0415,"Krzemieniecka-Kowieńska",,51.756170,19.421830,1,,0,,,0
564,0416,"Krzemieniecka-Retkińska",,51.758150,19.414180,1,,0,,,0
565,0417,"Krakowska-Konstantynowska (ZOO Orientari",,51.762960,19.407190,1,,0,,,0
566,0418,"Książąt Polskich-Zakładowa",,51.744200,19.551990,1,,0,,,0
567,1406,"Zakładowa-Piasta Kołodzieja",,51.742920,19.554230,1,,0,,,0
568,0419,"Kurczaki-Rzgowska",,51.717880,19.486140,1,,0,,,0
569,0420,"Kurczaki-Socjalna",,51.718490,19.490380,1,,0,,,0
570,0421,"Kurczaki-cm. Kurczaki",,51.719240,19.495890,1,,0,,,0
571,0422,"Komorniki",,51.720060,19.503630,1,,0,,,0
572,0423,"Kurczaki-cm. Kurczaki",,51.719370,19.496150,1,,0,,,0
573,0424,"Kurczaki-Socjalna",,51.718700,19.491320,1,,0,,,0
574,1003,"Rzgowska-Kurczaki",,51.718660,19.485140,1,,0,,,0
575,0425,"Retkinia Kusocińskiego",,51.747520,19.383150,1,,0,,,0
576,1610,"Popiełuszki-Wyszyńskiego",,51.741680,19.382920,1,,0,,,0
577,0426,"Retkinia Kusocińskiego",,51.747840,19.383540,1,,0,,,0
578,0427,"Retkinia Kusocińskiego",,51.747830,19.383250,1,,0,,,0
579,0430,"Kusocińskiego-Popiełuszki",,51.747970,19.385070,1,,0,,,0
580,0431,"Kusocińskiego-Armii Krajowej",,51.750130,19.392320,1,,0,,,0
581,1961,"Kusocińskiego-Babickiego",,51.752200,19.400000,1,,0,,,0
582,0433,"Kusocińskiego-Popiełuszki",,51.747540,19.383700,1,,0,,,0
583,0436,"Limanowskiego-Pułaskiego",,51.792490,19.418790,1,,0,,,0
584,1315,"Włókniarzy-Lutomierska",,51.790250,19.420970,1,,0,,,0
585,0438,"Limanowskiego-Mokra",,51.791210,19.425000,1,,0,,,0
586,0440,"Limanowskiego-Klonowa",,51.790390,19.429070,1,,0,,,0
587,0441,"Limanowskiego-Sierakowskiego",,51.789220,19.435650,1,,0,,,0
588,0442,"Limanowskiego-Piwna",,51.787800,19.442930,1,,0,,,0
589,0443,"Limanowskiego-Zachodnia",,51.787120,19.448590,1,,0,,,0
590,1398,"Zachodnia-Lutomierska",,51.783330,19.450240,1,,0,,,0
591,1792,"Limanowskiego-Bałucki Rynek",,51.786670,19.451550,1,,0,,,0
592,0445,"Limanowskiego-Piwna",,51.787750,19.443640,1,,0,,,0
593,0446,"Limanowskiego-Sierakowskiego",,51.789170,19.436120,1,,0,,,0
594,0447,"Limanowskiego-Klonowa",,51.790520,19.428850,1,,0,,,0
595,0448,"Limanowskiego-Mokra",,51.791360,19.424700,1,,0,,,0
596,0450,"Limanowskiego-Pułaskiego",,51.792600,19.418610,1,,0,,,0
597,0452,"Limanowskiego-Woronicza",,51.794230,19.410460,1,,0,,,0
598,1511,"Dw. Łódź Żabieniec",,51.793980,19.408390,1,,0,,,0
599,0454,"11 Listopada-Jantarowa",,51.815700,19.422550,1,,0,,,0
602,0459,"Radogoszcz Zachód",,51.817560,19.419230,1,,0,,,0
603,0458,"Radogoszcz Zachód",,51.817610,19.418960,1,,0,,,0
604,0460,"11 Listopada-Jantarowa",,51.815330,19.422810,1,,0,,,0
605,1312,"Włókniarzy-Liściasta NŻ",,51.810180,19.425070,1,,0,,,0
606,0461,"Liściasta-Liściasta 72 NŻ",,51.808330,19.428840,1,,0,,,0
607,0462,"Liściasta-Czereśniowa NŻ",,51.807090,19.435240,1,,0,,,0
608,0463,"Liściasta-cm. Radogoszcz",,51.806350,19.438800,1,,0,,,0
609,0465,"Liściasta-Czereśniowa NŻ",,51.807360,19.434280,1,,0,,,0
610,0466,"Liściasta-Liściasta 72 NŻ",,51.808460,19.428940,1,,0,,,0
611,1309,"Włókniarzy-Liściasta NŻ",,51.809660,19.425710,1,,0,,,0
612,1313,"Włókniarzy-św. Teresy NŻ",,51.803850,19.425430,1,,0,,,0
613,0467,"Lodowa-Ordonówny NŻ",,51.728790,19.517900,1,,0,,,0
614,0468,"Lodowa-Lodowa 97 NŻ",,51.730160,19.524190,1,,0,,,0
615,0469,"Lodowa-Dąbrowskiego NŻ",,51.734160,19.524360,1,,0,,,0
616,0471,"Lodowa-Dostawcza NŻ",,51.740240,19.524150,1,,0,,,0
617,0472,"Lodowa-Andrzejewskiej NŻ",,51.746140,19.522510,1,,0,,,0
618,0473,"Lodowa-cm. Zarzew",,51.750040,19.521340,1,,0,,,0
620,0474,"Lodowa-cm. Zarzew",,51.749400,19.521350,1,,0,,,0
621,0476,"Lodowa-Andrzejewskiej NŻ",,51.746150,19.522330,1,,0,,,0
622,0477,"Lodowa-Dostawcza NŻ",,51.740060,19.524020,1,,0,,,0
623,0478,"Lodowa-Lodowa 91 NŻ",,51.737340,19.524200,1,,0,,,0
624,0480,"Lodowa-Lodowa 97 NŻ",,51.730750,19.523990,1,,0,,,0
625,0481,"Lodowa-Ordonówny NŻ",,51.728830,19.518290,1,,0,,,0
626,1261,"Ossendowskiego-Lodowa NŻ",,51.731090,19.512430,1,,0,,,0
627,0482,"Lutomierska-Klonowa",,51.788020,19.427590,1,,0,,,0
628,0483,"Lutomierska-Czarnkowska",,51.785110,19.437870,1,,0,,,0
631,0484,"Lutomierska-Zachodnia",,51.783040,19.449400,1,,0,,,0
633,1393,"Zachodnia-Lutomierska",,51.783490,19.450480,1,,0,,,0
634,1399,"Zachodnia-Lutomierska NŻ",,51.782510,19.450320,1,,0,,,0
635,0485,"Lutomierska-Zachodnia",,51.783170,19.449060,1,,0,,,0
636,0486,"Lutomierska-Czarnkowska",,51.785540,19.436430,1,,0,,,0
639,1230,"Kutrzeby-Odolanowska",,51.785270,19.432720,1,,0,,,0
640,1287,"Wielkopolska-Pułaskiego",,51.790610,19.418410,1,,0,,,0
642,0488,"Łagiewnicka-Dolna",,51.791850,19.454970,1,,0,,,0
644,0491,"Łagiewnicka-Murarska",,51.799160,19.456400,1,,0,,,0
648,0493,"Zamojska-Prądzyńskiego",,51.723310,19.439700,1,,0,,,0
649,1424,"Św. Franciszka-Zwrotnikowa",,51.726850,19.436770,1,,0,,,0
650,0497,"Łagiewnicka-Litewska NŻ",,51.804370,19.459150,1,,0,,,0
651,0499,"Łagiewnicka-Morelowa NŻ",,51.808240,19.457960,1,,0,,,0
652,0501,"Łagiewnicka-Sowińskiego",,51.812380,19.455510,1,,0,,,0
653,0502,"Sikorskiego-Dw. Łódź Arturówek NŻ",,51.816820,19.454190,1,,0,,,0
654,1751,"Łagiewnicka-Dw. Łódź Arturówek NŻ",,51.816320,19.455180,1,,0,,,0
655,1785,"Świtezianki-Sikorskiego",,51.819950,19.448830,1,,0,,,0
656,0505,"Sikorskiego-Dw. Łódź Arturówek NŻ",,51.816750,19.453670,1,,0,,,0
657,0507,"Łagiewnicka-Sowińskiego",,51.812180,19.455210,1,,0,,,0
658,0509,"Łagiewnicka-Morelowa NŻ",,51.807630,19.458100,1,,0,,,0
659,0511,"Łagiewnicka-Litewska NŻ",,51.804570,19.458840,1,,0,,,0
660,1749,"Łagiewnicka-r. Powstańców 1863r.",,51.802140,19.457820,1,,0,,,0
662,0514,"Łagiewnicka-Murarska",,51.799010,19.456220,1,,0,,,0
663,0515,"Łagiewnicka-Kowalska",,51.795090,19.455400,1,,0,,,0
666,0518,"Łaskowice-Nad Dobrzynką NŻ",,51.709670,19.370290,1,,0,,,0
667,1039,"Sanitariuszek-Łaskowice NŻ",,51.712770,19.366070,1,,0,,,0
668,0520,"Łupkowa-Kobaltowa",,51.814770,19.498170,1,,0,,,0
669,1107,"Strykowska-Herbowa",,51.812400,19.502800,1,,0,,,0
670,1096,"Strykowska-Rogowska NŻ",,51.818950,19.506150,1,,0,,,0
671,0521,"Łupkowa-Kobaltowa",,51.814920,19.498710,1,,0,,,0
672,1251,"Warszawska-Wycieczkowa",,51.813190,19.486040,1,,0,,,0
673,0523,"1 Maja-Pogonowskiego",,51.771990,19.441260,1,,0,,,0
674,1713,"Żeligowskiego-pl. Hallera",,51.767940,19.438560,1,,0,,,0
676,1705,"Żeromskiego-Więckowskiego (LO nr 1)",,51.772250,19.445240,1,,0,,,0
677,0869,"Próchnika-Gdańska",,51.773950,19.447130,1,,0,,,0
678,0524,"Olechowska-Olechowska 22 NŻ",,51.730680,19.540060,1,,0,,,0
679,0663,"Olechowska-Tomaszowska",,51.727970,19.535470,1,,0,,,0
680,0525,"3 Maja-Morska",,51.716470,19.448510,1,,0,,,0
681,0526,"3 Maja-Świetlicowa NŻ",,51.715810,19.452410,1,,0,,,0
682,0871,"Pryncypalna-Mocna NŻ",,51.718620,19.460100,1,,0,,,0
683,0527,"3 Maja-Świetlicowa NŻ",,51.715930,19.452020,1,,0,,,0
684,0528,"3 Maja-Morska",,51.716710,19.447790,1,,0,,,0
685,0696,"Pabianicka-3 Maja",,51.718770,19.437300,1,,0,,,0
686,0529,"Olechowska-Olechowska 22 NŻ",,51.730300,19.539610,1,,0,,,0
687,0659,"Olechowska-Olechowska 36 NŻ",,51.732680,19.543590,1,,0,,,0
688,0530,"Malownicza-Taborowa NŻ",,51.753440,19.592750,1,,0,,,0
689,0531,"Malownicza-Gerberowa NŻ",,51.758590,19.602750,1,,0,,,0
690,0532,"Malownicza-Rataja NŻ",,51.760830,19.607170,1,,0,,,0
691,0931,"Rataja-Słoneczne Zacisze NŻ",,51.754160,19.616410,1,,0,,,0
692,0533,"Malownicza-Rataja NŻ",,51.761060,19.607440,1,,0,,,0
693,0534,"Malownicza-Gerberowa NŻ",,51.758420,19.602270,1,,0,,,0
694,1590,"Malownicza-Taborowa NŻ",,51.753600,19.592910,1,,0,,,0
695,0536,"Maratońska-Sanitariuszek NŻ",,51.726980,19.352400,1,,0,,,0
696,0537,"Maratońska-Trasa S14 NŻ",,51.730640,19.359500,1,,0,,,0
697,0538,"Maratońska-Golfowa",,51.732700,19.367920,1,,0,,,0
698,0539,"Maratońska-Kolarska NŻ",,51.735250,19.377060,1,,0,,,0
699,1982,"Maratońska-Gimnastyczna NŻ",,51.735770,19.379200,1,,0,,,0
700,0540,"Maratońska-Popiełuszki",,51.736340,19.385740,1,,0,,,0
701,0856,"Popiełuszki-Popiełuszki 21",,51.740240,19.384070,1,,0,,,0
702,0541,"Maratońska-Maratońska 91 NŻ",,51.736830,19.391230,1,,0,,,0
703,0542,"Maratońska-Plocka",,51.738800,19.398100,1,,0,,,0
704,0543,"Maratońska-Dw. Łódź Retkinia",,51.741320,19.406380,1,,0,,,0
705,1928,"Retkińska-Dw. Łódź Retkinia",,51.742050,19.405420,1,,0,,,0
706,0544,"Maratońska-Obywatelska",,51.742310,19.411880,1,,0,,,0
707,0625,"Nowe Sady-Waltera-Janke NŻ",,51.743050,19.422830,1,,0,,,0
709,0800,"Waltera Janke-Wyszyńskiego",,51.746730,19.419580,1,,0,,,0
711,0545,"Maratońska-Obywatelska",,51.742450,19.411770,1,,0,,,0
712,0546,"Maratońska-Dw. Łódź Retkinia",,51.740990,19.404040,1,,0,,,0
713,0547,"Maratońska-Plocka",,51.738710,19.397290,1,,0,,,0
714,0548,"Maratońska-Maratońska 91 NŻ",,51.736780,19.390370,1,,0,,,0
715,0552,"Maratońska-Popiełuszki",,51.736330,19.385210,1,,0,,,0
717,0549,"Maratońska (wew.)-Popiełuszki",,51.737110,19.387780,1,,0,,,0
718,0550,"Maratońska (wew.)-Popiełuszki",,51.737210,19.387610,1,,0,,,0
720,1981,"Maratońska-Gimnastyczna NŻ",,51.735930,19.379320,1,,0,,,0
721,0553,"Maratońska-Kolarska NŻ",,51.734920,19.375850,1,,0,,,0
722,0554,"Maratońska-Golfowa",,51.732410,19.366160,1,,0,,,0
723,0575,"Golfowa-Maratońska",,51.733490,19.366790,1,,0,,,0
724,0555,"Maratońska-Trasa S14 NŻ",,51.730890,19.360810,1,,0,,,0
725,0556,"Maratońska-Sanitariuszek NŻ",,51.727450,19.352820,1,,0,,,0
726,1672,"Sanitariuszek-G.O.Ś. NŻ",,51.727100,19.349440,1,,0,,,0
727,0558,"Marmurowa-Moskuliki",,51.810750,19.550170,1,,0,,,0
733,3332,"Kalonka-Kalonka/Centrum Ojca Pio",,51.824820,19.575470,2,,0,,,0
735,0564,"Marmurowa-Moskuliki",,51.810510,19.549700,1,,0,,,0
736,0565,"Marmurowa-Beskidzka NŻ",,51.799080,19.536110,1,,0,,,0
737,0566,"Marmurowa-Brzezińska",,51.797180,19.534930,1,,0,,,0
739,0569,"Mickiewicza-Żeromskiego",,51.757250,19.446790,1,,0,,,0
741,0736,"Piłsudskiego-Kilińskiego",,51.760120,19.469890,1,,0,,,0
743,0734,"Piłsudskiego-Sienkiewicza",,51.759790,19.464080,1,,0,,,0
744,0573,"Piotrkowska Centrum",,51.759240,19.456540,1,,0,,,0
746,1599,"Bandurskiego-Dw. Łódź Kaliska",,51.756020,19.433030,1,,0,,,0
747,1915,"Nowy Józefów-Golfowa",,51.736140,19.366530,1,,0,,,0
748,1514,"Żeromskiego-Kopernika",,51.761570,19.447680,1,,0,,,0
749,1694,"Włókniarzy-Karolewska (Dw. Ł. Kaliska)",,51.758370,19.433710,1,,0,,,0
751,1712,"Dw. Łódź Kaliska",,51.757560,19.432150,1,,0,,,0
752,0578,"Milionowa-Przędzalniana",,51.751310,19.486390,1,,0,,,0
754,0579,"Milionowa-Śmigłego-Rydza NŻ",,51.751740,19.488450,1,,0,,,0
755,0877,"Przędzalniana-Milionowa",,51.751640,19.485800,1,,0,,,0
756,0580,"Młynek",,51.723590,19.520480,1,,0,,,0
757,1134,"Śląska-Kowalszczyzna NŻ",,51.726570,19.516630,1,,0,,,0
760,0785,"Sterlinga-pl. Dąbrowskiego",,51.772870,19.469300,1,,0,,,0
763,0585,"Narutowicza-pl. Dąbrowskiego",,51.771930,19.470470,1,,0,,,0
764,1240,"Uniwersytecka-Rondo Solidarności",,51.778160,19.480090,1,,0,,,0
766,0587,"Narutowicza-Tramwajowa",,51.772390,19.475990,1,,0,,,0
768,0588,"Narutowicza-Kopcińskiego",,51.772920,19.482210,1,,0,,,0
769,0602,"Narutowicza-pl. Dąbrowskiego",,51.771940,19.469980,1,,0,,,0
770,0592,"Narutowicza-Radiostacja",,51.774190,19.494940,1,,0,,,0
772,0593,"Narutowicza-Radiostacja",,51.773950,19.494360,1,,0,,,0
773,0848,"Pomorska-Lumumby (kampus UŁ)",,51.777620,19.494940,1,,0,,,0
775,1762,"Pomorska-Konstytucyjna",,51.777630,19.496510,1,,0,,,0
776,0594,"Narutowicza-Radiostacja",,51.774220,19.494810,1,,0,,,0
777,0596,"Narutowicza-Matejki (kampus UŁ)",,51.773730,19.490050,1,,0,,,0
779,0598,"Narutowicza-Kopcińskiego",,51.773050,19.483260,1,,0,,,0
780,1923,"Narutowicza-Kopcińskiego",,51.773230,19.484000,1,,0,,,0
788,0606,"Nawrot-Kilińskiego",,51.763010,19.466540,1,,0,,,0
789,0607,"Nawrot-Targowa",,51.763550,19.473470,1,,0,,,0
790,0608,"Nawrot-Wysoka",,51.763890,19.477240,1,,0,,,0
791,0610,"Niciarniana-Niciarniana 45 NŻ",,51.757710,19.509840,1,,0,,,0
792,1633,"Niciarniana-przychodnia NŻ",,51.759790,19.509220,1,,0,,,0
793,0611,"Niciarniana-Piłsudskiego",,51.764230,19.507930,1,,0,,,0
794,0612,"Niciarniana-Dw. Łódź Niciarniana NŻ",,51.768920,19.506460,1,,0,,,0
795,0613,"Niciarniana-Czechosłowacka",,51.771180,19.505820,1,,0,,,0
797,0746,"Piłsudskiego-Niciarniana",,51.763300,19.509250,1,,0,,,0
798,0616,"Niciarniana-Piłsudskiego",,51.762560,19.508220,1,,0,,,0
799,1634,"Niciarniana-przychodnia NŻ",,51.759250,19.509220,1,,0,,,0
800,0617,"Niciarniana-Niciarniana 45 NŻ",,51.757120,19.509840,1,,0,,,0
806,0621,"Nowe Sady-Elektronowa NŻ",,51.741060,19.434330,1,,0,,,0
807,9012,"Nowe Sady-zajezdnia NOWE SADY",,51.746050,19.431380,1,,0,,,0
808,0622,"Nowe Sady-zajezdnia MPK NŻ",,51.746370,19.430350,1,,0,,,0
810,0623,"Nowe Sady-ROD Olimpijka NŻ",,51.743240,19.426540,1,,0,,,0
811,0624,"Nowe Sady-Waltera-Janke NŻ",,51.743170,19.423630,1,,0,,,0
812,0626,"Nowe Sady-ROD Olimpijka NŻ",,51.743170,19.426660,1,,0,,,0
813,1611,"Nowe Sady-zajezdnia MPK NŻ",,51.746320,19.430620,1,,0,,,0
814,0628,"Nowomiejska-Północna",,51.778640,19.454360,1,,0,,,0
815,1428,"Zgierska-pl. Kościelny",,51.782960,19.453390,1,,0,,,0
816,0629,"Nowomiejska-Północna",,51.779220,19.454100,1,,0,,,0
817,0824,"pl. Wolności",,51.777010,19.455060,1,,0,,,0
818,0638,"Legionów-Zachodnia",,51.776630,19.452590,1,,0,,,0
821,0631,"Legionów-Włókniarzy",,51.768770,19.427090,1,,0,,,0
823,0642,"Legionów-Włókniarzy",,51.769130,19.426520,1,,0,,,0
826,1402,"Zachodnia-Próchnika",,51.774130,19.452600,1,,0,,,0
827,0656,"Ogrodowa-Nowomiejska",,51.778860,19.453730,1,,0,,,0
828,1997,"Zachodnia-Manufaktura",,51.780440,19.451290,1,,0,,,0
829,0639,"Legionów-Gdańska",,51.776270,19.448160,1,,0,,,0
832,1303,"Włókniarzy-Srebrzyńska",,51.772300,19.421770,1,,0,,,0
833,0643,"Legionów-Włókniarzy",,51.769440,19.426970,1,,0,,,0
834,1234,"Unii Lubelskiej-Konstantynowska (Fala)",,51.768170,19.420890,1,,0,,,0
835,1510,"Źródłowa-Wojska Polskiego NŻ",,51.785460,19.467520,1,,0,,,0
836,0648,"Obywatelska-Obywatelska 106",,51.736930,19.431520,1,,0,,,0
837,0649,"Obywatelska-Nowe Sady",,51.736440,19.435740,1,,0,,,0
838,1327,"Jana Pawła II-Obywatelska",,51.735810,19.441960,1,,0,,,0
839,0650,"Obywatelska-Jana Pawła II",,51.736330,19.443020,1,,0,,,0
840,1294,"Jana Pawła II-Obywatelska",,51.737210,19.442480,1,,0,,,0
841,0811,"Politechniki-Obywatelska",,51.736850,19.453000,1,,0,,,0
842,0821,"Politechniki-Obywatelska",,51.736130,19.452460,1,,0,,,0
843,0651,"Obywatelska-Politechniki",,51.736440,19.451710,1,,0,,,0
844,0652,"Obywatelska-Jana Pawła II",,51.736610,19.442970,1,,0,,,0
845,0654,"Obywatelska-Nowe Sady",,51.736720,19.435580,1,,0,,,0
846,0653,"Obywatelska-Jana Pawła II",,51.736560,19.441150,1,,0,,,0
847,0655,"Obywatelska-Elektronowa NŻ",,51.737500,19.426040,1,,0,,,0
848,0858,"Północna-Kilińskiego",,51.779470,19.460630,1,,0,,,0
850,0657,"Ogrodowa-Nowomiejska",,51.778760,19.453700,1,,0,,,0
851,0859,"Północna-Kilińskiego",,51.779310,19.460040,1,,0,,,0
852,0658,"Okólna-Łagiewniki",,51.846890,19.474690,1,,0,,,0
853,1568,"Okólna-Łagiewnicka",,51.846740,19.468800,1,,0,,,0
854,1362,"Wycieczkowa-Wycieczkowa 86 NŻ",,51.835380,19.483290,1,,0,,,0
855,1584,"Olechowska-Olechowska 56 NŻ",,51.735090,19.547650,1,,0,,,0
856,0660,"Olechowska-Przewozowa NŻ",,51.738040,19.552720,1,,0,,,0
857,1407,"Zakładowa-Odnowiciela",,51.741520,19.562480,1,,0,,,0
858,0661,"Olechowska-Przewozowa NŻ",,51.738260,19.552920,1,,0,,,0
859,1585,"Olechowska-Olechowska 56 NŻ",,51.735000,19.547300,1,,0,,,0
860,0662,"Olechowska-Olechowska 36 NŻ",,51.732560,19.543230,1,,0,,,0
861,1205,"Tomaszowska-Bławatna NŻ",,51.732440,19.529720,1,,0,,,0
862,0664,"Opolska-Zjazdowa NŻ",,51.806950,19.532190,1,,0,,,0
863,1862,"Zjazdowa-Budy",,51.802820,19.530260,1,,0,,,0
864,0670,"Pabianicka-Chocianowicka",,51.706080,19.421970,1,,0,,,0
865,0672,"Pabianicka-Rudzka",,51.711610,19.429050,1,,0,,,0
866,0701,"Pabianicka-Chocianowicka",,51.706100,19.421830,1,,0,,,0
867,9003,"Pabianicka- ET-2",,51.707910,19.424140,1,,0,,,0
868,0674,"Pabianicka-Dubois",,51.715610,19.433880,1,,0,,,0
869,0676,"Pabianicka-3 Maja",,51.718700,19.437690,1,,0,,,0
870,1680,"Starorudzka-Pabianicka NŻ",,51.716290,19.435930,1,,0,,,0
871,0678,"Pabianicka-Prądzyńskiego",,51.723060,19.443000,1,,0,,,0
872,0679,"Pabianicka-Prądzyńskiego",,51.723000,19.443170,1,,0,,,0
873,0680,"Pabianicka-Jana Pawła II",,51.727550,19.448530,1,,0,,,0
874,1293,"Jana Pawła II-Rogozińskiego",,51.732750,19.442150,1,,0,,,0
875,0681,"Pabianicka-Jana Pawła II",,51.727340,19.448510,1,,0,,,0
876,0682,"Pabianicka-r. Lotników Lwowskich",,51.730660,19.452400,1,,0,,,0
877,0683,"Pabianicka-r. Lotników Lwowskich",,51.730140,19.451910,1,,0,,,0
878,0685,"Pabianicka-Wólczańska",,51.736660,19.459590,1,,0,,,0
879,0705,"Paderewskiego-Zaolziańska",,51.729330,19.456750,1,,0,,,0
880,0810,"Politechniki-Obywatelska",,51.736080,19.452830,1,,0,,,0
881,0691,"Pabianicka-Jana Pawła II",,51.727370,19.448120,1,,0,,,0
882,0684,"Pabianicka-r. Lotników Lwowskich",,51.732120,19.454360,1,,0,,,0
883,0706,"Paderewskiego-Zaolziańska",,51.728820,19.457500,1,,0,,,0
884,0809,"Politechniki-r. Lotników Lwowskich",,51.733010,19.452960,1,,0,,,0
886,1650,"Wólczańska-Skargi",,51.738580,19.458620,1,,0,,,0
887,0793,"pl. Niepodległości",,51.739800,19.463730,1,,0,,,0
888,1020,"Rzgowska-Dąbrowskiego",,51.738640,19.466790,1,,0,,,0
889,0775,"pl. Reymonta",,51.742830,19.462830,1,,0,,,0
890,0766,"Piotrkowska-Czerwona",,51.745700,19.461560,1,,0,,,0
891,0687,"Pabianicka-pl. Niepodległości",,51.738600,19.461780,1,,0,,,0
892,0690,"Pabianicka-r. Lotników Lwowskich",,51.732470,19.454110,1,,0,,,0
893,0689,"Pabianicka-r. Lotników Lwowskich",,51.732180,19.454050,1,,0,,,0
894,0692,"Pabianicka-Jana Pawła II",,51.728150,19.448870,1,,0,,,0
895,0693,"Pabianicka-Prądzyńskiego",,51.722990,19.442670,1,,0,,,0
896,0694,"Pabianicka-Prądzyńskiego",,51.723230,19.442670,1,,0,,,0
897,0695,"Pabianicka-3 Maja",,51.718620,19.437350,1,,0,,,0
898,0697,"Pabianicka-Dubois",,51.715530,19.433610,1,,0,,,0
899,0698,"Pabianicka-Dubois",,51.715750,19.433590,1,,0,,,0
900,0699,"Pabianicka-Rudzka",,51.711540,19.428780,1,,0,,,0
901,2017,"Pabianicka-Długa",,51.703010,19.417800,1,,0,,,0
902,0707,"Paderewskiego-Karpacka",,51.726600,19.462860,1,,0,,,0
903,0709,"Paderewskiego-Karpacka",,51.726220,19.464290,1,,0,,,0
904,0708,"Piastów Kurak",,51.726130,19.464430,1,,0,,,0
905,0710,"Paderewskiego-Tuszyńska",,51.728560,19.469670,1,,0,,,0
906,0718,"Paderewskiego-Karpacka",,51.726940,19.462240,1,,0,,,0
907,0711,"Paderewskiego-Tuszyńska",,51.728860,19.470790,1,,0,,,0
908,0712,"Paderewskiego-Rzgowska",,51.730250,19.474330,1,,0,,,0
909,1026,"Rzgowska-Dachowa",,51.724840,19.480690,1,,0,,,0
910,0713,"Paderewskiego-Rzgowska",,51.730250,19.474000,1,,0,,,0
911,0715,"Paderewskiego-Tuszyńska",,51.728870,19.470240,1,,0,,,0
912,0720,"Paderewskiego-Zaolziańska",,51.729600,19.456610,1,,0,,,0
913,0717,"Paderewskiego-Karpacka",,51.726760,19.462530,1,,0,,,0
914,0719,"Paderewskiego-Zaolziańska",,51.729040,19.457510,1,,0,,,0
915,0721,"Paderewskiego-r. Lotników Lwowskich",,51.730950,19.453880,1,,0,,,0
916,0723,"Paradna-Obszerna NŻ",,51.711160,19.472690,1,,0,,,0
917,0724,"Paradna-Matek Polskich",,51.709970,19.478050,1,,0,,,0
918,1863,"Matek Polskich-Sczanieckiej",,51.706880,19.475630,1,,0,,,0
919,0725,"Matek Polskich-Przednia",,51.704090,19.478730,1,,0,,,0
920,1844,"Matek Polskich-ICZMP szpital",,51.705150,19.482160,1,,0,,,0
921,0726,"Paradna-Rzgowska",,51.709270,19.485620,1,,0,,,0
922,0727,"Matek Polskich-ICZMP przychodnia",,51.708500,19.484670,1,,0,,,0
923,1843,"Matek Polskich-ICZMP szpital",,51.705530,19.482380,1,,0,,,0
924,0728,"Matek Polskich-Przednia",,51.704450,19.478430,1,,0,,,0
925,1579,"Matek Polskich-Sczanieckiej",,51.707060,19.476140,1,,0,,,0
926,0729,"Paradna-Matek Polskich",,51.710190,19.477400,1,,0,,,0
927,0730,"Paradna-Obszerna NŻ",,51.710910,19.474320,1,,0,,,0
928,0731,"Demokratyczna-Trybunalska",,51.711850,19.465080,1,,0,,,0
929,2006,"Ustronna-Demokratyczna NŻ",,51.711300,19.465950,1,,0,,,0
930,0733,"Pieniny-Giewont",,51.778930,19.527230,1,,0,,,0
931,0735,"Piłsudskiego-Kilińskiego",,51.760130,19.468050,1,,0,,,0
932,0879,"Przędzalniana-Piłsudskiego",,51.762020,19.481110,1,,0,,,0
933,1222,"pl. Mikulskiego",,51.767390,19.485790,1,,0,,,0
934,1223,"pl. Mikulskiego",,51.767400,19.485890,1,,0,,,0
935,0738,"Piłsudskiego-Przędzalniana",,51.761060,19.480750,1,,0,,,0
936,0739,"Piłsudskiego-Śmigłego-Rydza",,51.761590,19.486540,1,,0,,,0
937,0742,"Piłsudskiego-Sarnia",,51.762120,19.494260,1,,0,,,0
938,0743,"Piłsudskiego-Konstytucyjna (Wi-Ma)",,51.762900,19.502230,1,,0,,,0
939,0744,"Piłsudskiego-Konstytucyjna (Wi-Ma)",,51.762900,19.503530,1,,0,,,0
940,0745,"Piłsudskiego-Niciarniana",,51.763450,19.509230,1,,0,,,0
941,0747,"Piłsudskiego-Widzew Stadion",,51.763720,19.517380,1,,0,,,0
943,0964,"Rokicińska-Maszynowa",,51.762400,19.527780,1,,0,,,0
944,0749,"Piłsudskiego-Widzew Stadion",,51.764200,19.516630,1,,0,,,0
945,0965,"Rokicińska-Maszynowa",,51.762200,19.528430,1,,0,,,0
946,1759,"Widzewska-Wiejska",,51.760210,19.517930,1,,0,,,0
947,0751,"Piłsudskiego-Niciarniana",,51.763360,19.506770,1,,0,,,0
949,0753,"Piłsudskiego-Konstytucyjna (Wi-Ma)",,51.762960,19.501840,1,,0,,,0
950,0754,"Piłsudskiego-Konstytucyjna (Wi-Ma)",,51.763100,19.501960,1,,0,,,0
951,0755,"Piłsudskiego-Sarnia",,51.762220,19.493140,1,,0,,,0
952,0756,"Piłsudskiego-Sarnia",,51.762310,19.492290,1,,0,,,0
953,0758,"Piłsudskiego-Śmigłego-Rydza",,51.761410,19.483360,1,,0,,,0
954,0757,"Piłsudskiego-Śmigłego-Rydza",,51.761860,19.487630,1,,0,,,0
956,0760,"Piłsudskiego-Targowa",,51.760710,19.473690,1,,0,,,0
957,0761,"Piłsudskiego-Kilińskiego",,51.760320,19.469500,1,,0,,,0
958,1048,"Sienkiewicza-Piłsudskiego",,51.758970,19.462920,1,,0,,,0
959,0767,"Piotrkowska-pl. Katedralny",,51.748220,19.461000,1,,0,,,0
960,0769,"Piotrkowska-Brzeźna",,51.752340,19.460200,1,,0,,,0
961,1522,"Piotrkowska-Żwirki",,51.755470,19.459460,1,,0,,,0
962,0772,"Piotrkowska-pl. Katedralny",,51.749700,19.460480,1,,0,,,0
963,0774,"Piotrkowska-Czerwona",,51.746640,19.461160,1,,0,,,0
964,0776,"Piotrkowska-pl. Niepodległości",,51.740450,19.462610,1,,0,,,0
965,0883,"Przybyszewskiego-Brzozowa",,51.744000,19.468720,1,,0,,,0
967,0952,"Rewolucji 1905r.-Kamińskiego NŻ",,51.776410,19.474750,1,,0,,,0
970,1429,"Zgierska-Bałucki Rynek",,51.785950,19.452730,1,,0,,,0
973,1605,"Politechniki-Skrzywana",,51.740540,19.452360,1,,0,,,0
974,1597,"Bandurskiego-Wileńska",,51.753840,19.421780,1,,0,,,0
975,0801,"Waltera Janke-Wyszyńskiego",,51.746610,19.418950,1,,0,,,0
977,1323,"Włókniarzy-Mickiewicza (Dw. Ł. Kaliska)",,51.756950,19.433840,1,,0,,,0
978,0803,"Pojezierska-Włókniarzy",,51.798990,19.425610,1,,0,,,0
979,0804,"Pojezierska-Grunwaldzka",,51.798490,19.430050,1,,0,,,0
980,1463,"Zgierska-Sędziowska",,51.794930,19.445730,1,,0,,,0
981,0808,"Pojezierska-Włókniarzy",,51.799060,19.426380,1,,0,,,0
982,1776,"Pojezierska-Elektrociepłownia EC3 NŻ",,51.799570,19.421200,1,,0,,,0
983,1192,"Św. Teresy-św. Teresy 91 NŻ",,51.804730,19.420350,1,,0,,,0
984,1308,"Włókniarzy-św. Teresy NŻ",,51.805270,19.426100,1,,0,,,0
985,0812,"Politechniki-Skrzywana",,51.739620,19.452400,1,,0,,,0
986,0814,"Politechniki-Wróblewskiego (kampus PŁ)",,51.744020,19.451400,1,,0,,,0
987,0813,"Politechniki-Wróblewskiego (kampus PŁ)",,51.743610,19.451630,1,,0,,,0
988,0816,"Politechniki-Radwańska (kampus PŁ)",,51.751090,19.450030,1,,0,,,0
989,0944,"Rembielińskiego-Inżynierska NŻ",,51.750400,19.443880,1,,0,,,0
990,1068,"Wólczańska-Czerwona",,51.746080,19.457000,1,,0,,,0
991,1351,"Wólczańska-Skrzywana NŻ",,51.744200,19.457310,1,,0,,,0
992,0815,"Politechniki-Radwańska (kampus PŁ)",,51.751570,19.449700,1,,0,,,0
993,1513,"Żeromskiego-Mickiewicza",,51.757340,19.448580,1,,0,,,0
994,1458,"Żeromskiego-Żwirki NŻ",,51.754700,19.449120,1,,0,,,0
996,0817,"Politechniki-Wróblewskiego (kampus PŁ)",,51.744710,19.451060,1,,0,,,0
997,0819,"Politechniki-Skrzywana",,51.739300,19.452310,1,,0,,,0
998,0818,"Politechniki-Wróblewskiego (kampus PŁ)",,51.744980,19.450830,1,,0,,,0
999,1697,"Politechniki-Skrzywana",,51.739000,19.452170,1,,0,,,0
1000,0820,"Politechniki-Obywatelska",,51.736620,19.452610,1,,0,,,0
1001,0823,"Politechniki-r. Lotników Lwowskich",,51.732290,19.452700,1,,0,,,0
1002,0822,"Politechniki-r. Lotników Lwowskich",,51.733130,19.452580,1,,0,,,0
1003,0825,"Pomorska-Kilińskiego",,51.777340,19.461440,1,,0,,,0
1004,0827,"Pomorska-Kamińskiego",,51.778470,19.474470,1,,0,,,0
1005,0828,"Pomorska-Wierzbowa",,51.778690,19.477090,1,,0,,,0
1006,0829,"Pomorska-Matejki",,51.778590,19.485030,1,,0,,,0
1007,0830,"Pomorska-Tamka",,51.778140,19.489080,1,,0,,,0
1008,0831,"Pomorska-Lumumby (kampus UŁ)",,51.777560,19.494980,1,,0,,,0
1010,0834,"Pomorska-Arniki NŻ",,51.771700,19.552470,1,,0,,,0
1011,0835,"Pomorska-Henrykowska NŻ",,51.770620,19.563150,1,,0,,,0
1012,0836,"Pomorska-Iglasta",,51.770060,19.569070,1,,0,,,0
1013,0837,"Pomorska-Pomorska 466 NŻ",,51.774390,19.581120,1,,0,,,0
1014,0838,"Pomorska-Śródziemnomorska NŻ",,51.780270,19.588280,1,,0,,,0
1015,0839,"Pomorska-Gryfa Pomorskiego NŻ",,51.784510,19.588770,1,,0,,,0
1016,1626,"Pomorska-Wendy NŻ",,51.788540,19.589200,1,,0,,,0
1017,0840,"Pomorska-Nowosolna",,51.793200,19.589520,1,,0,,,0
1018,1627,"Pomorska-Wendy NŻ",,51.788770,19.589050,1,,0,,,0
1019,0841,"Pomorska-Gryfa Pomorskiego NŻ",,51.785110,19.588690,1,,0,,,0
1020,0842,"Pomorska-Śródziemnomorska NŻ",,51.779960,19.588120,1,,0,,,0
1021,0843,"Pomorska-Pomorska 466 NŻ",,51.773950,19.580090,1,,0,,,0
1022,0844,"Pomorska-Iglasta",,51.770130,19.569130,1,,0,,,0
1023,0845,"Pomorska-Henrykowska NŻ",,51.770640,19.563680,1,,0,,,0
1024,0846,"Pomorska-Arniki NŻ",,51.771720,19.553330,1,,0,,,0
1025,1056,"Skalna-Juhasowa",,51.774190,19.543120,1,,0,,,0
1026,0849,"Pomorska-Tamka",,51.778160,19.490270,1,,0,,,0
1027,0850,"Pomorska-Matejki",,51.778520,19.486710,1,,0,,,0
1028,0851,"Pomorska-Rondo Solidarności",,51.778970,19.480090,1,,0,,,0
1029,0852,"Pomorska-Kamińskiego",,51.778570,19.475200,1,,0,,,0
1030,0853,"Pomorska-Sterlinga",,51.778070,19.469160,1,,0,,,0
1031,0854,"Pomorska-Kilińskiego",,51.777520,19.462530,1,,0,,,0
1032,2004,"Popiełuszki-Pływacka NŻ",,51.744030,19.382050,1,,0,,,0
1033,0857,"Popiełuszki-Popiełuszki 21",,51.739910,19.384060,1,,0,,,0
1034,0860,"Północna-Kamińskiego",,51.780470,19.472990,1,,0,,,0
1035,1791,"Kopcińskiego-rondo Solidarności",,51.778120,19.481410,1,,0,,,0
1036,0861,"Północna-Kamińskiego",,51.780750,19.475250,1,,0,,,0
1037,1084,"Sterlinga-Pomorska",,51.778250,19.468580,1,,0,,,0
1038,1401,"Zachodnia-Legionów",,51.776960,19.451980,1,,0,,,0
1039,1392,"Zachodnia-Lutomierska",,51.783450,19.450310,1,,0,,,0
1040,0870,"Próchnika-Piotrkowska",,51.774660,19.454540,1,,0,,,0
1041,0950,"Rewolucji 1905r.-Kilińskiego",,51.775400,19.463110,1,,0,,,0
1042,0873,"Pryncypalna-Kosynierów Gdyńskich NŻ",,51.721220,19.466680,1,,0,,,0
1043,0872,"Pryncypalna-Mieszkalna",,51.722440,19.470030,1,,0,,,0
1044,1755,"Kongresowa-Pryncypalna NŻ",,51.723520,19.473850,1,,0,,,0
1045,0874,"Pryncypalna-Kosynierów Gdyńskich NŻ",,51.721290,19.467170,1,,0,,,0
1046,0876,"Pryncypalna-Mocna NŻ",,51.718520,19.459590,1,,0,,,0
1047,0875,"Pryncypalna-Mieszkalna",,51.722720,19.470640,1,,0,,,0
1048,1232,"Tymienieckiego-Przędzalniana",,51.754130,19.482840,1,,0,,,0
1049,0878,"Przędzalniana-Tymienieckiego",,51.754880,19.483690,1,,0,,,0
1050,0880,"Tuwima-Przędzalniana",,51.767420,19.480160,1,,0,,,0
1051,0881,"Przędzalniana-Piłsudskiego",,51.762010,19.480980,1,,0,,,0
1052,0884,"Przybyszewskiego-Kilińskiego",,51.745190,19.474900,1,,0,,,0
1053,0886,"Przybyszewskiego-Śmigłego-Rydza",,51.747520,19.489030,1,,0,,,0
1054,0887,"Przybyszewskiego-Tatrzańska",,51.747950,19.492680,1,,0,,,0
1055,1155,"Śmigłego Rydza-Grota-Roweckiego",,51.743760,19.489280,1,,0,,,0
1056,0889,"Przybyszewskiego-Zapadła",,51.748750,19.499320,1,,0,,,0
1059,0891,"Przybyszewskiego-Nurta-Kaszyńskiego",,51.749710,19.505810,1,,0,,,0
1061,0892,"Przybyszewskiego-Dw. Łódź Zarzew",,51.750590,19.513750,1,,0,,,0
1062,0895,"Przybyszewskiego-Lodowa",,51.751840,19.522150,1,,0,,,0
1064,0894,"Przybyszewskiego-Mechaniczna (CRO) NŻ",,51.751180,19.518500,1,,0,,,0
1065,1828,"Przybyszewskiego-Rondo Sybiraków",,51.752510,19.528910,1,,0,,,0
1066,0897,"Przybyszewskiego-Rondo Sybiraków",,51.752320,19.529460,1,,0,,,0
1067,0919,"Puszkina-Rondo Sybiraków",,51.754090,19.532700,1,,0,,,0
1069,0898,"Przybyszewskiego-Czajkowskiego",,51.751270,19.541030,1,,0,,,0
1070,1848,"Przybyszewskiego-Augustów NŻ",,51.749200,19.547040,1,,0,,,0
1071,0899,"Przybyszewskiego-Czajkowskiego",,51.751510,19.541710,1,,0,,,0
1072,0902,"Przybyszewskiego-Rondo Sybiraków",,51.752830,19.528250,1,,0,,,0
1074,0903,"Przybyszewskiego-Lodowa",,51.751860,19.521470,1,,0,,,0
1075,0905,"Przybyszewskiego-Dw. Łódź Zarzew",,51.750640,19.513320,1,,0,,,0
1077,0907,"Przybyszewskiego-Nurta-Kaszyńskiego",,51.749880,19.506760,1,,0,,,0
1079,0909,"Przybyszewskiego-Zapadła",,51.748880,19.499890,1,,0,,,0
1081,0912,"Przybyszewskiego-Śmigłego-Rydza",,51.747780,19.490580,1,,0,,,0
1085,0913,"Przybyszewskiego-Łęczycka",,51.746910,19.483730,1,,0,,,0
1086,1142,"Śmigłego Rydza-Milionowa",,51.752560,19.489370,1,,0,,,0
1087,0914,"Przybyszewskiego-Kilińskiego",,51.745700,19.477030,1,,0,,,0
1088,0916,"pl. Reymonta",,51.742880,19.462640,1,,0,,,0
1089,0917,"Puszkina-Andrzejewskiej NŻ",,51.748260,19.531680,1,,0,,,0
1090,0918,"Puszkina-Rondo Sybiraków",,51.753780,19.532240,1,,0,,,0
1091,0920,"Puszkina-Chmielowskiego",,51.757820,19.535730,1,,0,,,0
1092,0921,"Puszkina-rondo Inwalidów",,51.758820,19.536460,1,,0,,,0
1093,0966,"Rokicińska-Rondo Inwalidów",,51.760390,19.538950,1,,0,,,0
1094,0978,"Rokicińska-Maszynowa",,51.762630,19.527190,1,,0,,,0
1095,1617,"Puszkina-Rondo Inwalidów",,51.761410,19.537970,1,,0,,,0
1096,1539,"rondo Inwalidów",,51.762270,19.537660,1,,0,,,0
1097,0922,"Puszkina-Chmielowskiego",,51.757700,19.535600,1,,0,,,0
1098,0924,"Puszkina-Rondo Sybiraków",,51.754040,19.532320,1,,0,,,0
1099,0925,"Puszkina-Rondo Sybiraków",,51.753850,19.531750,1,,0,,,0
1100,1829,"Przybyszewskiego-Rondo Sybiraków",,51.752610,19.529180,1,,0,,,0
1101,0926,"Puszkina-Andrzejewskiej NŻ",,51.748840,19.530930,1,,0,,,0
1102,1699,"Puszkina-Dostawcza NŻ",,51.741250,19.531700,1,,0,,,0
1103,0927,"Radwańska-Politechniki (kampus PŁ)",,51.751660,19.447910,1,,0,,,0
1104,1703,"Kościuszki-Radwańska",,51.753240,19.457340,1,,0,,,0
1106,2000,"Wólczańska-Skorupki",,51.750020,19.455990,1,,0,,,0
1107,0932,"Rataja-Gajcego NŻ",,51.748520,19.623120,1,,0,,,0
1108,0934,"Rataja-Słoneczne Zacisze NŻ",,51.754500,19.616210,1,,0,,,0
1109,0935,"Śląska-Lodowa NŻ",,51.727370,19.511030,1,,0,,,0
1110,1135,"Śląska-Szymańskiego NŻ",,51.727920,19.504950,1,,0,,,0
1111,0936,"Śląska-Lodowa NŻ",,51.727370,19.510560,1,,0,,,0
1112,1133,"Śląska-Kowalszczyzna NŻ",,51.725950,19.518410,1,,0,,,0
1113,0945,"Retkińska-Zagrodniki",,51.745700,19.405630,1,,0,,,0
1114,1851,"Retkińska-Kusocińskiego",,51.752880,19.411180,1,,0,,,0
1115,0948,"Retkińska-Kusocińskiego",,51.751790,19.410100,1,,0,,,0
1116,0949,"Retkińska-Wyszyńskiego",,51.747150,19.405600,1,,0,,,0
1117,1962,"Kusocińskiego-Babickiego",,51.752150,19.399340,1,,0,,,0
1119,1952,"Retkińska-Zagrodniki",,51.744840,19.405310,1,,0,,,0
1120,0951,"Rewolucji 1905r.-Sterlinga NŻ",,51.775760,19.467670,1,,0,,,0
1121,0953,"Teofilów Rojna",,51.795480,19.361350,1,,0,,,0
1122,0954,"Rojna-Wici",,51.794730,19.369990,1,,0,,,0
1123,0994,"Rydzowa-Lniana",,51.797320,19.375600,1,,0,,,0
1124,0955,"Rojna-Rydzowa",,51.794490,19.375220,1,,0,,,0
1126,1214,"Traktorowa-Nektarowa NŻ",,51.786560,19.392230,1,,0,,,0
1127,1208,"Traktorowa-Łanowa",,51.795360,19.394080,1,,0,,,0
1128,0958,"Rojna-Traktorowa",,51.792570,19.391840,1,,0,,,0
1129,0959,"Rojna-Kaczeńcowa",,51.793690,19.385860,1,,0,,,0
1130,0960,"Rojna-Rydzowa",,51.794640,19.375080,1,,0,,,0
1131,0961,"Rojna-Wici",,51.794950,19.371560,1,,0,,,0
1134,0967,"Rokicińska-Rondo Inwalidów",,51.760120,19.538630,1,,0,,,0
1135,0968,"Rokicińska-Lermontowa",,51.758420,19.549780,1,,0,,,0
1136,0969,"Rokicińska-Lermontowa",,51.758270,19.549460,1,,0,,,0
1137,0970,"Widzew Augustów",,51.758300,19.551390,1,,0,,,0
1138,1741,"Janów",,51.752030,19.574870,1,,0,,,0
1140,0971,"Rokicińska-Lermontowa",,51.758540,19.549720,1,,0,,,0
1141,0973,"Rokicińska-Rondo Inwalidów",,51.760580,19.538420,1,,0,,,0
1142,0974,"Rokicińska-Rondo Inwalidów",,51.760440,19.540060,1,,0,,,0
1145,0980,"Rudzka-Municypalna",,51.705170,19.434380,1,,0,,,0
1146,0981,"Rudzka-Przestrzenna",,51.702650,19.437580,1,,0,,,0
1148,0982,"Rudzka-Farna",,51.701270,19.438260,1,,0,,,0
1149,0983,"Rudzka-Popioły",,51.698010,19.440860,1,,0,,,0
1150,0984,"Rudzka-Cienista NŻ",,51.692580,19.446160,1,,0,,,0
1153,0986,"Rudzka-Skrajna",,51.689130,19.452120,1,,0,,,0
1154,0987,"Rudzka-Cienista NŻ",,51.693190,19.445350,1,,0,,,0
1155,0988,"Rudzka-Popioły",,51.698630,19.440800,1,,0,,,0
1156,0990,"Rudzka-Farna",,51.700840,19.438550,1,,0,,,0
1157,0991,"Rudzka-Przestrzenna",,51.703510,19.436840,1,,0,,,0
1158,0992,"Rudzka-Municypalna",,51.705950,19.433570,1,,0,,,0
1159,0993,"Rudzka-Pabianicka NŻ",,51.710410,19.429300,1,,0,,,0
1160,2016,"Chocianowicka-Pabianicka",,51.706570,19.421760,1,,0,,,0
1161,1897,"Aleksandrowska-Szparagowa",,51.801480,19.375470,1,,0,,,0
1162,0995,"Rydzowa-Lniana",,51.797050,19.375190,1,,0,,,0
1164,1035,"Instytut CZMP",,51.703280,19.481050,1,,0,,,0
1165,0997,"Rzgowska-ICZMP szpital NŻ",,51.704690,19.483710,1,,0,,,0
1166,1000,"Chojny Kurczaki",,51.718140,19.486550,1,,0,,,0
1167,1001,"Chojny Kurczaki",,51.718340,19.486060,1,,0,,,0
1168,1004,"Rzgowska-cm. Rzgowska",,51.721190,19.483900,1,,0,,,0
1169,1005,"Rzgowska-cm. Rzgowska",,51.721200,19.484080,1,,0,,,0
1170,1007,"Rzgowska-Dachowa",,51.725120,19.480580,1,,0,,,0
1171,1006,"Rzgowska-Dachowa",,51.724890,19.481030,1,,0,,,0
1172,1009,"Dw. Łódź Chojny",,51.726040,19.480350,1,,0,,,0
1176,1013,"Rzgowska-Paderewskiego",,51.731670,19.473920,1,,0,,,0
1177,1027,"Rzgowska-Dachowa",,51.724300,19.481040,1,,0,,,0
1178,1015,"Rzgowska-Lecznicza",,51.734100,19.471510,1,,0,,,0
1180,1017,"Rzgowska-Dąbrowskiego",,51.738220,19.467420,1,,0,,,0
1182,1023,"Rzgowska-Paderewskiego",,51.730840,19.474520,1,,0,,,0
1183,1028,"Rzgowska-cm. Rzgowska",,51.720990,19.483900,1,,0,,,0
1184,1029,"Rzgowska-cm. Rzgowska",,51.720480,19.484020,1,,0,,,0
1185,1030,"Rzgowska-Kurczaki",,51.717220,19.484990,1,,0,,,0
1186,1647,"Strażacka-Rzgowska",,51.717800,19.483140,1,,0,,,0
1187,1031,"Rzgowska-św. Wojciecha",,51.714110,19.486260,1,,0,,,0
1188,1656,"Paradna-Rzgowska",,51.709470,19.487070,1,,0,,,0
1189,1032,"Rzgowska-Paradna",,51.708480,19.486710,1,,0,,,0
1190,1033,"Rzgowska-ICZMP szpital",,51.703180,19.481820,1,,0,,,0
1191,1037,"Rzgowska-Zagłoby",,51.698960,19.479000,1,,0,,,0
1192,1036,"Chojny Hydro",,51.699130,19.473310,1,,0,,,0
1197,1040,"Sanitariuszek-Dw. Łódź Lublinek NŻ",,51.719200,19.359000,1,,0,,,0
1198,1571,"Sanitariuszek-Biwakowa NŻ",,51.722960,19.354700,1,,0,,,0
1199,1041,"Sanitariuszek-Dw. Łódź Lublinek NŻ",,51.718900,19.359310,1,,0,,,0
1200,1042,"Sanitariuszek-Łaskowice NŻ",,51.712970,19.366010,1,,0,,,0
1201,1045,"Sienkiewicza-Piłsudskiego",,51.758190,19.463400,1,,0,,,0
1202,1290,"Wigury-Kilińskiego NŻ",,51.757200,19.468860,1,,0,,,0
1203,1046,"Sienkiewicza-park Sienkiewicza",,51.764230,19.461980,1,,0,,,0
1205,1049,"Sienkiewicza-Pogotowie Ratunkowe",,51.754940,19.463910,1,,0,,,0
1207,1053,"Sikorskiego-Nastrojowa",,51.817510,19.444900,1,,0,,,0
1208,1054,"Sikorskiego-Nastrojowa",,51.817530,19.443670,1,,0,,,0
1209,1055,"Sikorskiego-Herlinga-Grudzińskiego",,51.816350,19.439270,1,,0,,,0
1210,1455,"Zgierska-Sikorskiego",,51.814850,19.434390,1,,0,,,0
1211,1057,"Skalna-Kasprowy Wierch NŻ",,51.775280,19.536090,1,,0,,,0
1212,1722,"Zbocze-Potokowa NŻ",,51.776540,19.530940,1,,0,,,0
1216,1060,"Skłodowskiej Curie-Żeromskiego",,51.763220,19.446610,1,,0,,,0
1217,1061,"Struga-Gdańska",,51.764380,19.450860,1,,0,,,0
1218,1062,"Skrzydlata-Kasztelańska NŻ",,51.813170,19.473270,1,,0,,,0
1219,1958,"Skrzydlata-Żucza NŻ",,51.818170,19.473750,1,,0,,,0
1220,1063,"Arturówek",,51.821320,19.474320,1,,0,,,0
1221,1959,"Skrzydlata-Żucza NŻ",,51.817890,19.473600,1,,0,,,0
1222,1064,"Skrzydlata-Kasztelańska NŻ",,51.813170,19.473050,1,,0,,,0
1224,1249,"Warszawska-Centralna NŻ",,51.810550,19.480080,1,,0,,,0
1225,1067,"Solec-Borowa NŻ",,51.777900,19.410440,1,,0,,,0
1226,2001,"Wólczańska-Skorupki",,51.749840,19.456150,1,,0,,,0
1227,1069,"Sporna-Wojska Polskiego",,51.789670,19.479020,1,,0,,,0
1228,1070,"Sporna-Bracka",,51.792660,19.478180,1,,0,,,0
1229,1404,"Inflancka-Zagajnikowa",,51.800260,19.476380,1,,0,,,0
1230,1071,"Sporna-Bracka",,51.791960,19.478070,1,,0,,,0
1231,1343,"Wojska Polskiego-Sporna",,51.788850,19.477920,1,,0,,,0
1232,1072,"Wólczańska-Czerwona",,51.746430,19.456830,1,,0,,,0
1233,1074,"Srebrzyńska-Jarzynowa",,51.774450,19.408520,1,,0,,,0
1234,1075,"Srebrzyńska-Unii Lubelskiej",,51.772860,19.416930,1,,0,,,0
1235,1239,"Konstantynowska-Unii Lubelskiej (Fala)",,51.767430,19.421920,1,,0,,,0
1236,1773,"Bandurskiego-Atlas Arena",,51.756050,19.425970,1,,0,,,0
1237,1236,"Unii Lubelskiej-Praussa",,51.775880,19.415730,1,,0,,,0
1241,1079,"Cmentarna-cm. Ogrodowa",,51.775630,19.437160,1,,0,,,0
1242,1081,"Srebrzyńska-Unii Lubelskiej",,51.773120,19.416150,1,,0,,,0
1243,1082,"Srebrzyńska-Jarzynowa",,51.774360,19.409660,1,,0,,,0
1244,1603,"Srebrzyńska-cm. Mania",,51.775690,19.406260,1,,0,,,0
1245,1516,"Żeromskiego-pl. Barlickiego",,51.768920,19.446210,1,,0,,,0
1246,1087,"Struga-Pogonowskiego NŻ",,51.764470,19.444330,1,,0,,,0
1247,1088,"Struga-Żeligowskiego",,51.764170,19.440900,1,,0,,,0
1248,1689,"Łąkowa-Karolewska",,51.761390,19.441240,1,,0,,,0
1249,1091,"Palki-Smutna",,51.787970,19.484990,1,,0,,,0
1250,1592,"Doły-Telefoniczna NŻ",,51.783730,19.491250,1,,0,,,0
1251,1614,"Telefoniczna-Bystrzycka NŻ",,51.782990,19.493170,1,,0,,,0
1252,1092,"Palki-Wojska Polskiego",,51.789980,19.486630,1,,0,,,0
1253,1341,"Wojska Polskiego-Palki",,51.791130,19.486410,1,,0,,,0
1254,1594,"Strykowska-Inflancka",,51.797830,19.487900,1,,0,,,0
1255,1338,"Wojska Polskiego-Łomnicka NŻ",,51.793630,19.494810,1,,0,,,0
1256,1093,"Strykowska-Kwarcowa NŻ",,51.802680,19.493400,1,,0,,,0
1257,1094,"Strykowska-Opolska NŻ",,51.806790,19.499460,1,,0,,,0
1258,1095,"Strykowska-Herbowa",,51.812530,19.503160,1,,0,,,0
1259,1097,"Strykowska-Łodzianka NŻ",,51.824960,19.519990,1,,0,,,0
1260,1098,"Strykowska-Okólna NŻ",,51.829860,19.531040,1,,0,,,0
1261,1099,"Strykowska-Jana i Cecylii NŻ",,51.834340,19.541300,1,,0,,,0
1262,1100,"Strykowska-Strykowska 241 NŻ",,51.838190,19.550130,1,,0,,,0
1263,1101,"Strykowska-Imielnik Nowy",,51.841870,19.558030,1,,0,,,0
1265,1102,"Strykowska-Strykowska 241 NŻ",,51.838120,19.549550,1,,0,,,0
1267,1103,"Strykowska-Jana i Cecylii NŻ",,51.833950,19.540080,1,,0,,,0
1268,1104,"Strykowska-Okólna NŻ",,51.829600,19.530170,1,,0,,,0
1269,1105,"Strykowska-Łodzianka NŻ",,51.825860,19.521550,1,,0,,,0
1270,1106,"Strykowska-Rogowska NŻ",,51.819450,19.506940,1,,0,,,0
1271,1108,"Strykowska-Opolska NŻ",,51.806980,19.499480,1,,0,,,0
1272,1109,"Strykowska-Kwarcowa NŻ",,51.802640,19.492940,1,,0,,,0
1273,1114,"Palki-Wojska Polskiego",,51.790340,19.486500,1,,0,,,0
1274,1111,"Doły",,51.797800,19.487400,1,,0,,,0
1275,1112,"Doły",,51.797120,19.487500,1,,0,,,0
1276,1340,"Wojska Polskiego-Palki",,51.791430,19.486810,1,,0,,,0
1277,1115,"Palki-Smutna",,51.787300,19.483880,1,,0,,,0
1278,1116,"Palki-Źródłowa",,51.780300,19.482010,1,,0,,,0
1279,1790,"Uniwersytecka-rondo Solidarności",,51.778500,19.480110,1,,0,,,0
1280,1767,"Pomorska-rondo Solidarności",,51.778830,19.482980,1,,0,,,0
1281,1118,"Szczecińska-św. Teresy",,51.812030,19.377390,1,,0,,,0
1282,1678,"cm. Szczecińska",,51.816850,19.382000,1,,0,,,0
1284,1128,"Szczecińska-św. Teresy",,51.813380,19.378890,1,,0,,,0
1285,1187,"Św. Teresy-Kaczeńcowa NŻ",,51.809410,19.390700,1,,0,,,0
1286,1913,"Św. Teresy-św. Teresy 109 NŻ",,51.811120,19.383020,1,,0,,,0
1290,1864,"Rydzowa-Aleksandrowska",,51.800720,19.375720,1,,0,,,0
1291,1871,"Aleksandrowska-Szparagowa",,51.800880,19.377160,1,,0,,,0
1292,1132,"Śląska-Szymańskiego NŻ",,51.727880,19.504400,1,,0,,,0
1294,1628,"Konspiracyjnego WP-Felińskiego",,51.731620,19.497110,1,,0,,,0
1295,1141,"Śmigłego Rydza-Przybyszewskiego",,51.747160,19.489830,1,,0,,,0
1296,1144,"Śmigłego Rydza-Zbiorcza",,51.757980,19.488130,1,,0,,,0
1298,1147,"Kopcińskiego-Piłsudskiego",,51.762550,19.484790,1,,0,,,0
1301,1163,"Tatrzańska-Brzechwy NŻ",,51.746950,19.493620,1,,0,,,0
1302,1151,"Śmigłego Rydza-Milionowa",,51.750920,19.489370,1,,0,,,0
1303,1153,"Śmigłego Rydza-Przybyszewskiego",,51.748210,19.489580,1,,0,,,0
1305,1157,"Śmigłego Rydza-Dąbrowskiego",,51.737940,19.488920,1,,0,,,0
1307,1160,"Świtezianki-Syrenki",,51.821910,19.448080,1,,0,,,0
1308,1784,"Świtezianki-Sikorskiego",,51.818950,19.448330,1,,0,,,0
1309,1162,"Tatrzańska-Grota-Roweckiego",,51.743900,19.494540,1,,0,,,0
1310,1164,"Tatrzańska-Grota-Roweckiego",,51.743240,19.494660,1,,0,,,0
1311,1165,"Tatrzańska-Dąbrowskiego",,51.737750,19.494770,1,,0,,,0
1312,9001,"Telefoniczna- ET-1",,51.782910,19.509910,1,,0,,,0
1314,1185,"Telefoniczna Zajezdnia",,51.781640,19.506580,1,,0,,,0
1315,1169,"Telefoniczna-Chmurna",,51.782060,19.513230,1,,0,,,0
1316,1171,"Telefoniczna-Weselna",,51.783180,19.519860,1,,0,,,0
1317,1170,"Telefoniczna-Chmurna",,51.782080,19.513280,1,,0,,,0
1318,1172,"Telefoniczna-Weselna",,51.783300,19.520960,1,,0,,,0
1319,1173,"Telefoniczna-Pieniny",,51.782950,19.525190,1,,0,,,0
1320,1174,"Telefoniczna-Pieniny",,51.782850,19.525150,1,,0,,,0
1321,1175,"Stoki",,51.782070,19.531090,1,,0,,,0
1322,1176,"Stoki",,51.782440,19.529690,1,,0,,,0
1323,1177,"Telefoniczna-Pieniny",,51.783030,19.525070,1,,0,,,0
1324,1179,"Telefoniczna-Weselna",,51.783320,19.519800,1,,0,,,0
1325,1181,"Telefoniczna-Chmurna",,51.782370,19.515220,1,,0,,,0
1326,1182,"Telefoniczna-Chmurna",,51.782370,19.515170,1,,0,,,0
1328,1184,"Telefoniczna Zajezdnia",,51.782760,19.509270,1,,0,,,0
1329,1977,"Telefoniczna-Telefoniczna 27 NŻ",,51.782700,19.504170,1,,0,,,0
1330,1188,"Św. Teresy-Traktorowa NŻ",,51.808330,19.394940,1,,0,,,0
1331,1212,"Traktorowa-Ludowa NŻ",,51.806240,19.395690,1,,0,,,0
1332,1193,"Św. Teresy-Brukowa NŻ",,51.805990,19.412790,1,,0,,,0
1333,1912,"Św. Teresy-św. Teresy 109 NŻ",,51.811100,19.384040,1,,0,,,0
1334,1195,"Św. Teresy-Szczecińska",,51.812140,19.379500,1,,0,,,0
1335,1677,"cm. Szczecińska",,51.816910,19.381880,1,,0,,,0
1336,1676,"cm. Szczecińska",,51.816930,19.381790,1,,0,,,0
1337,1674,"cm. Szczecińska",,51.817020,19.381620,1,,0,,,0
1338,1197,"Tomaszowska-Olechowska",,51.727820,19.534540,1,,0,,,0
1339,1198,"Tomaszowska-Ofiar Terroryzmu 11 Września",,51.724690,19.537750,1,,0,,,0
1340,1967,"Ofiar Terroryzmu 11 Września-Tomaszowska",,51.725480,19.538760,1,,0,,,0
1341,1199,"Tomaszowska-Jędrzejowska",,51.720570,19.539670,1,,0,,,0
1342,1200,"Tomaszowska-Małego Rycerza NŻ",,51.716080,19.541820,1,,0,,,0
1343,1202,"Tomaszowska-Jędrzejowska",,51.720930,19.539720,1,,0,,,0
1344,1203,"Tomaszowska-Ofiar Terroryzmu 11 Września",,51.725880,19.536850,1,,0,,,0
1345,1204,"Tomaszowska-Olechowska",,51.727390,19.535200,1,,0,,,0
1346,1207,"Traktorowa-Nektarowa NŻ",,51.787120,19.392590,1,,0,,,0
1347,1681,"Traktorowa-Duńska NŻ",,51.801960,19.395190,1,,0,,,0
1348,1210,"Traktorowa-Ludowa NŻ",,51.803930,19.395530,1,,0,,,0
1349,1211,"Traktorowa-św. Teresy NŻ",,51.807610,19.396260,1,,0,,,0
1350,1682,"Traktorowa-Duńska NŻ",,51.801170,19.394770,1,,0,,,0
1351,1215,"Traktorowa-Rąbieńska",,51.783090,19.391600,1,,0,,,0
1352,1501,"Złotno-Siewna",,51.779390,19.398210,1,,0,,,0
1353,1216,"Trybunalska-Kwietniowa NŻ",,51.714910,19.466530,1,,0,,,0
1354,1217,"Trybunalska-Kosynierów Gdyńskich",,51.718250,19.468060,1,,0,,,0
1355,1846,"Kosynierów Gdyńskich-Łazowskiego",,51.716610,19.472640,1,,0,,,0
1358,1224,"Tuwima-Rodz. Kindermannów NŻ",,51.767660,19.482260,1,,0,,,0
1359,1795,"Przędzalniana-Nawrot",,51.763820,19.480510,1,,0,,,0
1360,1225,"Tuwima-Wysoka",,51.767370,19.478220,1,,0,,,0
1361,1226,"Tuwima-Targowa (Planetarium)",,51.766860,19.472000,1,,0,,,0
1362,1227,"Tuwima-Kilińskiego (EC1 Centr. Nauki)",,51.766400,19.466670,1,,0,,,0
1363,1979,"Tymienieckiego-ŁSSE",,51.752900,19.478470,1,,0,,,0
1364,1978,"Tymienieckiego-ŁSSE",,51.752720,19.477350,1,,0,,,0
1367,1235,"Unii Lubelskiej-Srebrzyńska",,51.773140,19.417520,1,,0,,,0
1368,1238,"Unii Lubelskiej-Srebrzyńska",,51.773350,19.417160,1,,0,,,0
1369,1241,"Uniwersytecka-Rewolucji 1905r.",,51.775930,19.476990,1,,0,,,0
1372,1728,"Warszawska-Słowicza NŻ",,51.809520,19.477570,1,,0,,,0
1375,1250,"Wycieczkowa",,51.813370,19.486720,1,,0,,,0
1376,1255,"Warszawska-Centralna NŻ",,51.810700,19.480140,1,,0,,,0
1378,1729,"Warszawska-Słowicza NŻ",,51.809660,19.477710,1,,0,,,0
1379,1257,"Warszawska-Dw. Łódź Warszawska NŻ",,51.807810,19.473340,1,,0,,,0
1382,1932,"Warszawska-Deczyńskiego NŻ",,51.805560,19.468280,1,,0,,,0
1384,1262,"Ossendowskiego-Dąbrowskiego NŻ",,51.734920,19.515180,1,,0,,,0
1385,1264,"Ossendowskiego-Lodowa NŻ",,51.730740,19.512220,1,,0,,,0
1395,1282,"Wiączyńska-Autostrada A1 NŻ",,51.781570,19.605390,1,,0,,,0
1396,1279,"Wiączyńska-Wiączyńska 16 NŻ",,51.788370,19.596770,1,,0,,,0
1397,1280,"Wiączyńska-Wiączyńska 32 NŻ",,51.783800,19.602850,1,,0,,,0
1398,1281,"Wiączyńska-Autostrada A1 NŻ",,51.780930,19.605370,1,,0,,,0
1399,1283,"Wiączyńska-Wiączyńska 32 NŻ",,51.783510,19.603380,1,,0,,,0
1400,1284,"Wiączyńska-Wiączyńska 16 NŻ",,51.788720,19.596510,1,,0,,,0
1401,1591,"Wiączyńska-Nowosolna",,51.793290,19.590540,1,,0,,,0
1402,1286,"Wielkopolska-Pułaskiego",,51.790820,19.417060,1,,0,,,0
1404,1349,"Woronicza-Dw. Łódź Żabieniec",,51.794240,19.407230,1,,0,,,0
1405,1517,"Żeromskiego-pl. Barlickiego",,51.768990,19.446040,1,,0,,,0
1406,1609,"Więckowskiego-Pogonowskiego",,51.771580,19.443140,1,,0,,,0
1407,1289,"Więckowskiego-Żeligowskiego",,51.769920,19.437590,1,,0,,,0
1408,1601,"Maratońska-Wróblewskiego NŻ",,51.748450,19.428600,1,,0,,,0
1409,1295,"Jana Pawła II-Wróblewskiego",,51.745560,19.440600,1,,0,,,0
1410,1296,"Jana Pawła II-Łaska",,51.749220,19.437960,1,,0,,,0
1412,1302,"Włókniarzy-Legionów",,51.768410,19.426110,1,,0,,,0
1414,1304,"Włókniarzy-Długosza",,51.777440,19.421320,1,,0,,,0
1415,1305,"Włókniarzy-Żubardzka",,51.785230,19.421320,1,,0,,,0
1416,1306,"Włókniarzy-Lutomierska",,51.789400,19.421160,1,,0,,,0
1418,1320,"Włókniarzy-Legionów NŻ",,51.767860,19.426000,1,,0,,,0
1420,1316,"Włókniarzy-Żubardzka",,51.785580,19.421170,1,,0,,,0
1421,1317,"Włókniarzy-Długosza",,51.777690,19.421200,1,,0,,,0
1422,1318,"Włókniarzy-Srebrzyńska",,51.772110,19.421860,1,,0,,,0
1423,1319,"Włókniarzy-Legionów",,51.768140,19.426090,1,,0,,,0
1424,1324,"Włókniarzy-Karolewska (Dw. Ł. Kaliska)",,51.758170,19.433430,1,,0,,,0
1425,1325,"Jana Pawła II-Łaska",,51.749320,19.437400,1,,0,,,0
1426,1326,"Jana Pawła II-Wróblewskiego",,51.745700,19.439990,1,,0,,,0
1427,1328,"Jana Pawła II-Rogozińskiego",,51.732120,19.441600,1,,0,,,0
1428,1329,"Wojska Polskiego-Franciszkańska",,51.784550,19.459620,1,,0,,,0
1429,1332,"Wojska Polskiego-Głowackiego",,51.787020,19.470990,1,,0,,,0
1430,1334,"Wojska Polskiego-Sporna",,51.788990,19.478500,1,,0,,,0
1431,1337,"Wojska Polskiego-Palki",,51.790790,19.486020,1,,0,,,0
1432,1336,"Wojska Polskiego-Palki",,51.791530,19.486680,1,,0,,,0
1433,1731,"Śnieżna-Brzezińska NŻ",,51.795050,19.503640,1,,0,,,0
1434,1342,"Wojska Polskiego-Sporna",,51.789380,19.479480,1,,0,,,0
1435,1344,"Wojska Polskiego-Głowackiego",,51.787320,19.471590,1,,0,,,0
1436,1346,"Wojska Polskiego-Marynarska",,51.785500,19.464760,1,,0,,,0
1437,1345,"Wojska Polskiego-Marynarska",,51.785700,19.465360,1,,0,,,0
1438,1347,"Wojska Polskiego-Franciszkańska",,51.784870,19.461010,1,,0,,,0
1439,1348,"Wojska Polskiego-Franciszkańska",,51.785050,19.461660,1,,0,,,0
1440,2002,"Wólczańska-Skargi",,51.739030,19.458380,1,,0,,,0
1442,1356,"Wycieczkowa-Wypoczynkowa NŻ",,51.805830,19.487270,1,,0,,,0
1443,1956,"Wycieczkowa-Woskowa NŻ",,51.810110,19.487270,1,,0,,,0
1444,1357,"Wycieczkowa-Warszawska",,51.813320,19.487330,1,,0,,,0
1445,1358,"Wycieczkowa-Rogowska NŻ",,51.817250,19.486530,1,,0,,,0
1446,1359,"Wycieczkowa-Wiewiórcza NŻ",,51.821860,19.487350,1,,0,,,0
1447,1360,"Wycieczkowa-Nowaka Jeziorańskiego NŻ",,51.825260,19.487950,1,,0,,,0
1448,1361,"Wycieczkowa-Wycieczkowa 86 NŻ",,51.834930,19.483630,1,,0,,,0
1449,1363,"Wycieczkowa-Nowaka Jeziorańskiego NŻ",,51.825510,19.487990,1,,0,,,0
1450,1364,"Wycieczkowa-Wiewiórcza NŻ",,51.821660,19.487280,1,,0,,,0
1451,1365,"Wycieczkowa-Rogowska NŻ",,51.817900,19.486600,1,,0,,,0
1452,1366,"Wycieczkowa-Warszawska",,51.814340,19.486960,1,,0,,,0
1453,1957,"Wycieczkowa-Woskowa NŻ",,51.809820,19.487170,1,,0,,,0
1454,1367,"Wycieczkowa-Wypoczynkowa NŻ",,51.806520,19.487080,1,,0,,,0
1455,1368,"Wycieczkowa-Strykowska",,51.801190,19.488610,1,,0,,,0
1456,1369,"Retkinia",,51.742520,19.384930,1,,0,,,0
1457,1370,"Retkinia",,51.742110,19.384430,1,,0,,,0
1458,1372,"Wyszyńskiego-blok 270",,51.744410,19.392250,1,,0,,,0
1459,1373,"Wyszyńskiego-Armii Krajowej",,51.746460,19.399450,1,,0,,,0
1460,1374,"Wyszyńskiego-Retkińska",,51.748030,19.405640,1,,0,,,0
1461,1376,"Wyszyńskiego-os. Piaski",,51.747490,19.413340,1,,0,,,0
1462,1377,"Wyszyńskiego-os. Piaski",,51.747340,19.413790,1,,0,,,0
1463,1378,"Wyszyńskiego-Waltera-Janke",,51.747450,19.418320,1,,0,,,0
1464,1379,"Wyszyńskiego-Waltera-Janke",,51.747060,19.417690,1,,0,,,0
1465,1382,"Wyszyńskiego-os. Piaski",,51.747520,19.413860,1,,0,,,0
1466,1381,"Wyszyńskiego-Waltera-Janke",,51.748260,19.417570,1,,0,,,0
1467,1383,"Wyszyńskiego-os. Piaski",,51.747830,19.412050,1,,0,,,0
1468,1384,"Wyszyńskiego-Retkińska",,51.748080,19.404960,1,,0,,,0
1469,1386,"Wyszyńskiego-Armii Krajowej",,51.746370,19.398840,1,,0,,,0
1470,1387,"Wyszyńskiego-blok 270",,51.744470,19.392060,1,,0,,,0
1471,1391,"Zachodnia-Legionów",,51.776170,19.452260,1,,0,,,0
1472,1395,"Zachodnia-Limanowskiego",,51.786780,19.449230,1,,0,,,0
1473,1394,"Zachodnia-Limanowskiego",,51.786190,19.449480,1,,0,,,0
1474,1870,"Bałucki Rynek-Bałucki Rynek",,51.786640,19.453110,1,,0,,,0
1475,1432,"Zgierska-Dolna",,51.790030,19.449630,1,,0,,,0
1476,1430,"Zgierska-Dolna",,51.790120,19.449260,1,,0,,,0
1477,1396,"Zachodnia-Limanowskiego",,51.787360,19.449000,1,,0,,,0
1478,1397,"Zachodnia-Limanowskiego",,51.786310,19.449100,1,,0,,,0
1479,1998,"Zachodnia-Manufaktura",,51.780210,19.451250,1,,0,,,0
1480,1403,"Kościuszki-6 Sierpnia",,51.768600,19.453640,1,,0,,,0
1482,1970,"Ofiar Terroryzmu 11 Września-Transmisyjn",,51.732560,19.563010,1,,0,,,0
1483,1826,"Hetmańska-Dąbrówki",,51.743420,19.570400,1,,0,,,0
1485,1740,"Janów",,51.752110,19.574420,1,,0,,,0
1486,1410,"Zakładowa-Dorabialskiej NŻ",,51.737190,19.587640,1,,0,,,0
1487,1411,"Zakładowa-Tranzytowa NŻ",,51.736930,19.590630,1,,0,,,0
1488,1412,"Zakładowa-Dyspozytorska NŻ",,51.736910,19.597700,1,,0,,,0
1489,1413,"Gajcego-Zakładowa",,51.737290,19.607740,1,,0,,,0
1490,1840,"Gajcego-szkoła",,51.739480,19.610530,1,,0,,,0
1491,1414,"Zakładowa-Dyspozytorska NŻ",,51.737010,19.598910,1,,0,,,0
1492,1415,"Zakładowa-Tranzytowa NŻ",,51.736980,19.591690,1,,0,,,0
1493,1416,"Zakładowa-Dorabialskiej NŻ",,51.737340,19.587290,1,,0,,,0
1495,1418,"Zakładowa-Hetmańska",,51.740700,19.568070,1,,0,,,0
1496,1419,"Zakładowa-Odnowiciela",,51.741870,19.561600,1,,0,,,0
1498,1421,"Zakładowa-Książąt Polskich",,51.743300,19.553010,1,,0,,,0
1499,1849,"Przybyszewskiego-Augustów NŻ",,51.749040,19.547620,1,,0,,,0
1502,1787,"Limanowskiego-Zachodnia",,51.786960,19.449940,1,,0,,,0
1503,1433,"Zgierska-Adwokacka",,51.792990,19.447580,1,,0,,,0
1504,1434,"Zgierska-Sędziowska",,51.795520,19.445970,1,,0,,,0
1505,1435,"Zgierska-Julianowska",,51.797140,19.444610,1,,0,,,0
1506,1436,"Zgierska-Julianowska",,51.798350,19.444040,1,,0,,,0
1507,1437,"Zgierska-Biegańskiego",,51.799820,19.442660,1,,0,,,0
1508,1632,"Zgierska-cm. Radogoszcz",,51.806600,19.439530,1,,0,,,0
1509,1438,"Zgierska-pl. Pamięci Narodowej",,51.808770,19.438430,1,,0,,,0
1510,1439,"Zgierska-Przedwiośnie",,51.811570,19.436650,1,,0,,,0
1511,1440,"Zgierska-Sikorskiego",,51.815150,19.434180,1,,0,,,0
1512,1442,"Zgierska-Pasieczna",,51.818890,19.432300,1,,0,,,0
1513,1443,"Zgierska-Świtezianki",,51.822670,19.430000,1,,0,,,0
1514,1444,"Zgierska-Brzoskwiniowa",,51.825890,19.428050,1,,0,,,0
1515,1445,"Zgierska-Helenówek",,51.828530,19.426450,1,,0,,,0
1517,3020,"Łódzka-Chełmy",,51.834630,19.422710,2,,0,,,0
1518,1449,"Zgierska-Helenówek",,51.828270,19.426480,1,,0,,,0
1519,1447,"Aleksandrowska-Romanowska NŻ",,51.811960,19.339780,1,,0,,,0
1520,3198,"Szatonia",,51.814210,19.329160,2,,0,,,0
1521,1448,"Aleksandrowska-Romanowska NŻ",,51.811600,19.341110,1,,0,,,0
1522,1904,"Aleksandrowska-Spadkowa NŻ",,51.809310,19.347200,1,,0,,,0
1523,1451,"Zgierska-Brzoskwiniowa",,51.825680,19.428040,1,,0,,,0
1524,1452,"Zgierska-Świtezianki",,51.822470,19.429980,1,,0,,,0
1525,1453,"Zgierska-Pasieczna",,51.818690,19.432290,1,,0,,,0
1526,1454,"Zgierska-Sikorskiego",,51.816100,19.433500,1,,0,,,0
1527,1456,"Zgierska-Przedwiośnie",,51.811930,19.436300,1,,0,,,0
1529,1457,"Zgierska-pl. Pamięci Narodowej",,51.809020,19.438140,1,,0,,,0
1530,1587,"Zgierska-cm. Radogoszcz",,51.806580,19.439400,1,,0,,,0
1531,1460,"Zgierska-Biegańskiego",,51.799630,19.442650,1,,0,,,0
1532,1462,"Zgierska-Julianowska",,51.797020,19.444520,1,,0,,,0
1533,1464,"Zgierska-Adwokacka",,51.793170,19.447260,1,,0,,,0
1534,1701,"Zgierska-Dolna",,51.790070,19.448870,1,,0,,,0
1535,1466,"Zgierska-Bałucki Rynek",,51.787660,19.451400,1,,0,,,0
1536,1467,"Zgierska-pl. Kościelny",,51.783810,19.453000,1,,0,,,0
1538,1471,"Zielona-pl. Barlickiego",,51.769600,19.445630,1,,0,,,0
1539,1473,"Zielona-Gdańska",,51.769890,19.448710,1,,0,,,0
1542,1481,"Zielona-pl. Barlickiego",,51.769760,19.446420,1,,0,,,0
1545,1861,"Zjazdowa-Budy",,51.803750,19.530680,1,,0,,,0
1546,1487,"Zjazdowa-Opolska NŻ",,51.806060,19.531380,1,,0,,,0
1547,1488,"Zjazdowa-Moskuliki NŻ",,51.809460,19.534620,1,,0,,,0
1548,1489,"Łukaszew Zjazdowa",,51.814760,19.533310,1,,0,,,0
1549,1490,"Zjazdowa-Moskuliki NŻ",,51.809770,19.534360,1,,0,,,0
1550,1491,"Zjazdowa-Beskidzka NŻ",,51.798600,19.528390,1,,0,,,0
1551,1496,"Złotno-Złotno 141 NŻ",,51.775900,19.359490,1,,0,,,0
1552,1497,"Złotno-Stare Złotno NŻ",,51.775840,19.367820,1,,0,,,0
1553,1498,"Złotno-Legnicka NŻ",,51.776800,19.375580,1,,0,,,0
1555,1500,"Złotno-Podchorążych",,51.778640,19.389370,1,,0,,,0
1556,1725,"Złotno-Kwiatowa NŻ",,51.779630,19.394190,1,,0,,,0
1557,1505,"Złotno-Stare Złotno NŻ",,51.775910,19.367630,1,,0,,,0
1558,1506,"Złotno-Złotno 141 NŻ",,51.775980,19.359660,1,,0,,,0
1559,1507,"Złotno-Huta Jagodnica",,51.775550,19.347710,1,,0,,,0
1560,1649,"Złotno-Huta Jagodnica",,51.775340,19.349090,1,,0,,,0
1561,1512,"Żeligowskiego-Struga",,51.765080,19.439360,1,,0,,,0
1562,1520,"Żeromskiego-Radwańska (kampus PŁ)",,51.752200,19.449400,1,,0,,,0
1563,1521,"Politechniki-Radwańska (kampus PŁ)",,51.751460,19.449340,1,,0,,,0
1564,1808,"Wróblewskiego-Politechniki (kampus PŁ)",,51.744350,19.452530,1,,0,,,0
1565,1524,"Rokicińska-Książąt Polskich NŻ",,51.755300,19.566240,1,,0,,,0
1566,1714,"Rokicińska-Hetmańska NŻ",,51.753430,19.575890,1,,0,,,0
1568,1525,"Rokicińska-Transmisyjna",,51.752200,19.583220,1,,0,,,0
1569,1526,"Rokicińska-Józefiaka",,51.750760,19.590790,1,,0,,,0
1570,1527,"Rokicińska-Autostrada A1 NŻ",,51.749070,19.596550,1,,0,,,0
1571,1528,"Rokicińska-Walentynowicz NŻ",,51.743870,19.605790,1,,0,,,0
1572,1529,"Rokicińska-Gajcego",,51.740270,19.612300,1,,0,,,0
1573,1530,"Rokicińska-Gwarna",,51.737520,19.617100,1,,0,,,0
1574,1910,"Rokicińska-Andrzejki",,51.731310,19.628120,1,,0,,,0
1575,1542,"Wieńcowa-Rokicińska NŻ",,51.733220,19.623960,1,,0,,,0
1576,1531,"Rokicińska-Gwarna",,51.736780,19.618680,1,,0,,,0
1578,1532,"Rokicińska-Gajcego",,51.740790,19.611560,1,,0,,,0
1579,1533,"Rokicińska-Walentynowicz NŻ",,51.744530,19.604860,1,,0,,,0
1580,1534,"Rokicińska-Autostrada A1 NŻ",,51.750190,19.594850,1,,0,,,0
1581,1535,"Rokicińska-Józefiaka",,51.751430,19.589100,1,,0,,,0
1582,1536,"Rokicińska-Transmisyjna",,51.752770,19.581550,1,,0,,,0
1583,1918,"Rokicińska-Hetmańska NŻ",,51.754160,19.574260,1,,0,,,0
1584,1537,"Rokicińska-Książąt Polskich NŻ",,51.755930,19.564620,1,,0,,,0
1585,1538,"Rokicińska-Rokicińska 144 NŻ",,51.756950,19.558920,1,,0,,,0
1586,1540,"Wieńcowa-Przylesie NŻ",,51.731670,19.614320,1,,0,,,0
1587,1541,"Wieńcowa-Rokicińska NŻ",,51.733130,19.623670,1,,0,,,0
1588,1574,"Wieńcowa-Przylesie NŻ",,51.731780,19.614390,1,,0,,,0
1589,1552,"Łagiewnicka-Przepiórcza NŻ",,51.823600,19.459040,1,,0,,,0
1590,1553,"Łagiewnicka-Pszczelna NŻ",,51.826780,19.461880,1,,0,,,0
1591,1554,"Łagiewnicka-Łagiewnicka 292 NŻ",,51.829100,19.463540,1,,0,,,0
1592,1555,"Łagiewnicka-Kuropatwia NŻ",,51.836800,19.466690,1,,0,,,0
1593,1556,"Łagiewnicka-Jaskółcza NŻ",,51.841230,19.467470,1,,0,,,0
1594,1557,"Łagiewnicka-Łagiewnicka 311 NŻ",,51.845990,19.468110,1,,0,,,0
1595,1563,"Okólna-Łagiewniki",,51.846860,19.475100,1,,0,,,0
1596,1558,"Łagiewnicka-Jaskółcza NŻ",,51.841380,19.467400,1,,0,,,0
1597,1559,"Łagiewnicka-Kuropatwia NŻ",,51.837120,19.466710,1,,0,,,0
1598,1560,"Łagiewnicka-Łagiewnicka 292 NŻ",,51.829520,19.463640,1,,0,,,0
1599,1561,"Łagiewnicka-Pszczelna NŻ",,51.826560,19.461500,1,,0,,,0
1600,1562,"Łagiewnicka-Przepiórcza NŻ",,51.822990,19.458670,1,,0,,,0
1601,1752,"Łagiewnicka-Dw. Łódź Arturówek NŻ",,51.817650,19.456220,1,,0,,,0
1602,1564,"Okólna-Serwituty NŻ",,51.845040,19.502010,1,,0,,,0
1603,1565,"Okólna-Modrzew",,51.843590,19.507350,1,,0,,,0
1604,1566,"Okólna-Serwituty NŻ",,51.845130,19.502010,1,,0,,,0
1605,1567,"Okólna-Łagiewniki",,51.847000,19.474940,1,,0,,,0
1606,1853,"Okólna-Secesyjna NŻ",,51.848150,19.459920,1,,0,,,0
1607,1572,"Sanitariuszek-Biwakowa NŻ",,51.722500,19.355110,1,,0,,,0
1608,1573,"Wieńcowa-Feliksińska NŻ",,51.725250,19.605020,1,,0,,,0
1609,1575,"Wieńcowa-Feliksińska NŻ",,51.725380,19.604990,1,,0,,,0
1610,1578,"Feliksińska-Dworcowa NŻ",,51.726480,19.600670,1,,0,,,0
1611,1576,"Jędrzejowska-Dw. Łódź Olechów Wschód",,51.729710,19.596090,1,,0,,,0
1612,1577,"Feliksińska-Dworcowa NŻ",,51.726680,19.599980,1,,0,,,0
1614,3333,"Rudzka-Mała NŻ (Rzgów)",,51.671790,19.480060,2,,0,,,0
1617,1588,"Nowosolna",,51.794280,19.589950,1,,0,,,0
1618,1905,"Byszewska-Nowosolna",,51.794730,19.591450,1,,0,,,0
1619,1593,"Doły-Smutna NŻ",,51.788020,19.492170,1,,0,,,0
1620,1648,"Doły Smutna",,51.789610,19.499440,1,,0,,,0
1622,1726,"Dw. Łódź Kaliska",,51.756670,19.431030,1,,0,,,0
1624,1654,"Maratońska-Stadion Miejski NŻ",,51.756140,19.429930,1,,0,,,0
1625,1602,"Maratońska-Wróblewskiego NŻ",,51.747960,19.427850,1,,0,,,0
1628,1608,"Pomorska-Nowosolna",,51.793020,19.589640,1,,0,,,0
1629,1973,"Brzezińska-Nowosolna",,51.793750,19.590360,1,,0,,,0
1630,1715,"Kasprowicza-ROD Relaks NŻ",,51.800970,19.580440,1,,0,,,0
1631,1875,"Elektronowa-Nowe Sady NŻ",,51.741780,19.433240,1,,0,,,0
1632,1976,"Telefoniczna-Telefoniczna 27 NŻ",,51.782670,19.503480,1,,0,,,0
1633,1616,"rondo Inwalidów",,51.762360,19.537510,1,,0,,,0
1637,1635,"Przestrzenna-Karowa NŻ",,51.703250,19.448960,1,,0,,,0
1638,1638,"Przestrzenna-Tabelowa NŻ",,51.704740,19.456920,1,,0,,,0
1639,1637,"Przestrzenna-Karowa NŻ",,51.703540,19.450240,1,,0,,,0
1640,1687,"Przestrzenna-Sławna NŻ",,51.703190,19.443860,1,,0,,,0
1641,2010,"Graniczna-Przestrzenna NŻ",,51.706340,19.458860,1,,0,,,0
1642,1639,"Przestrzenna-Tabelowa NŻ",,51.704700,19.456150,1,,0,,,0
1643,1640,"Graniczna-Rozalii NŻ",,51.700320,19.464280,1,,0,,,0
1644,1643,"Graniczna-Graniczna 62 NŻ",,51.697290,19.469270,1,,0,,,0
1646,1964,"Siostrzana-Graniczna NŻ",,51.703210,19.462050,1,,0,,,0
1647,1645,"Kongresowa-Jutrzenki",,51.720280,19.477180,1,,0,,,0
1648,1646,"Kongresowa-Pryncypalna NŻ",,51.723230,19.474220,1,,0,,,0
1649,1877,"Doły-Smutna NŻ",,51.787840,19.491970,1,,0,,,0
1650,1999,"Wólczańska-Skrzywana NŻ",,51.742680,19.457790,1,,0,,,0
1655,1653,"Strykowska-Imielnik Nowy",,51.842300,19.558270,1,,0,,,0
1664,1667,"Pienista-Komandorska",,51.735990,19.407600,1,,0,,,0
1665,2011,"Maczka-Aeroklub NŻ",,51.728530,19.403900,1,,0,,,0
1667,1670,"Pienista-Komandorska",,51.736230,19.408410,1,,0,,,0
1668,1669,"Przestrzenna-Sławna NŻ",,51.703130,19.442930,1,,0,,,0
1669,1856,"Pienista-Rusałki NŻ",,51.738750,19.413370,1,,0,,,0
1670,1671,"Pienista-Obywatelska",,51.740440,19.416710,1,,0,,,0
1671,1855,"Pienista-Rusałki NŻ",,51.739160,19.413950,1,,0,,,0
1673,1690,"Karolewska-Włókniarzy",,51.758550,19.435440,1,,0,,,0
1674,1691,"Struga-Włókniarzy",,51.761350,19.432850,1,,0,,,0
1675,1692,"Łąkowa-Struga",,51.763100,19.439410,1,,0,,,0
1676,1693,"Skłodowskiej Curie-Pogonowskiego NŻ",,51.761940,19.443260,1,,0,,,0
1677,1793,"Puszkina-Dąbrowskiego NŻ",,51.736370,19.531630,1,,0,,,0
1678,1700,"Puszkina-Dostawcza NŻ",,51.741280,19.532140,1,,0,,,0
1679,1708,"Prądzyńskiego-Rozwojowa",,51.723050,19.426740,1,,0,,,0
1680,1709,"Prądzyńskiego-Darniowa NŻ",,51.722820,19.432780,1,,0,,,0
1682,1873,"Pokładowa-Świętojańska NŻ",,51.718710,19.431260,1,,0,,,0
1683,1716,"Kasprowicza-Witkacego NŻ",,51.804120,19.576330,1,,0,,,0
1684,1717,"ROD Polanka",,51.806440,19.573320,1,,0,,,0
1685,1718,"ROD Polanka",,51.806380,19.573250,1,,0,,,0
1686,1719,"Kasprowicza-Witkacego NŻ",,51.804050,19.576260,1,,0,,,0
1687,1720,"Kasprowicza-ROD Relaks NŻ",,51.801000,19.580260,1,,0,,,0
1689,1735,"Śnieżna-Stokowska NŻ",,51.790970,19.506550,1,,0,,,0
1690,1732,"Śnieżna-Brzezińska NŻ",,51.794330,19.504350,1,,0,,,0
1692,1736,"Śnieżna-Stokowska NŻ",,51.792020,19.506020,1,,0,,,0
1693,1734,"Sikawa Centrum Handlowe",,51.791940,19.512360,1,,0,,,0
1694,1738,"Janów",,51.752010,19.575000,1,,0,,,0
1695,1811,"Hetmańska-Juranda ze Spychowa",,51.749580,19.573090,1,,0,,,0
1696,1739,"Janów",,51.752020,19.574870,1,,0,,,0
1700,1756,"Kongresowa-Jutrzenki",,51.720570,19.476730,1,,0,,,0
1701,1757,"Strażacka-Tuszyńska NŻ",,51.717960,19.480250,1,,0,,,0
1705,1763,"Pomorska-Konstytucyjna",,51.777440,19.497580,1,,0,,,0
1706,1764,"Konstytucyjna-Narutowicza",,51.775350,19.498010,1,,0,,,0
1707,1766,"Pomorska-rondo Solidarności",,51.778930,19.483050,1,,0,,,0
1711,1774,"Pojezierska-Brukowa",,51.800550,19.411920,1,,0,,,0
1712,1777,"Świtezianki-Syrenki",,51.822280,19.447980,1,,0,,,0
1713,1779,"Radogoszcz Wschód",,51.824670,19.438210,1,,0,,,0
1714,1782,"Radogoszcz Wschód",,51.824770,19.438600,1,,0,,,0
1715,1781,"Radogoszcz Wschód",,51.824900,19.438040,1,,0,,,0
1717,1778,"Radogoszcz Wschód",,51.824760,19.438120,1,,0,,,0
1718,1788,"Pabianicka-Mierzejowa",,51.701250,19.415550,1,,0,,,0
1719,3144,"Łódzka-Mały Skręt",,51.694950,19.408980,1,,0,,,0
1720,2014,"Chocianowice IKEA",,51.700690,19.413390,1,,0,,,0
1721,1789,"Pabianicka-Mierzejowa",,51.701290,19.415810,1,,0,,,0
1722,2018,"Pabianicka-Długa",,51.703070,19.418070,1,,0,,,0
1724,1799,"Brzezińska-Tatarkiewicza NŻ",,51.793070,19.601940,1,,0,,,0
1725,1802,"Brzezińska-Autostrada A1",,51.792560,19.610190,1,,0,,,0
1726,1800,"Brzezińska-Tatarkiewicza NŻ",,51.793320,19.599290,1,,0,,,0
1727,1813,"Brzezińska-Nowosolna",,51.793810,19.591530,1,,0,,,0
1732,1803,"Brzezińska-Autostrada A1",,51.792700,19.609230,1,,0,,,0
1734,1809,"Hetmańska-Zagłoby",,51.746220,19.571460,1,,0,,,0
1735,1827,"Hetmańska-Dąbrówki",,51.743390,19.570190,1,,0,,,0
1736,1810,"Hetmańska-Zagłoby",,51.747400,19.572340,1,,0,,,0
1738,1815,"Żeromskiego-Kopernika",,51.761320,19.447440,1,,0,,,0
1741,1901,"Aleksandrowska-Chochoła",,51.805090,19.356650,1,,0,,,0
1744,1834,"Okólna-Antyczna NŻ",,51.847060,19.466240,1,,0,,,0
1746,1841,"Gajcego-szkoła",,51.739280,19.610050,1,,0,,,0
1747,1842,"Gajcego-Zakładowa NŻ",,51.738200,19.608410,1,,0,,,0
1748,1852,"Retkińska-Wileńska",,51.754830,19.412350,1,,0,,,0
1749,1859,"Okólna-Okólna 244",,51.849280,19.452700,1,,0,,,0
1750,3022,"Długa-Łagiewnicka (Zgierz)",,51.851060,19.440950,1,,0,,,0
1751,1860,"Okólna-Okólna 244",,51.849040,19.453780,1,,0,,,0
1752,1878,"Doły-Telefoniczna NŻ",,51.783860,19.491150,1,,0,,,0
1766,1899,"Aleksandrowska-Szczecińska",,51.802580,19.370030,1,,0,,,0
1767,1900,"Aleksandrowska-Szczecińska",,51.802490,19.369150,1,,0,,,0
1768,1903,"Aleksandrowska-Spadkowa NŻ",,51.809050,19.347970,1,,0,,,0
1769,1902,"Aleksandrowska-Chochoła",,51.804640,19.358380,1,,0,,,0
1770,1908,"Byszewska-Pomarańczowa",,51.799330,19.600570,1,,0,,,0
1771,1906,"Byszewska-Byszewska 26",,51.804370,19.610580,1,,0,,,0
1772,3076,"Janów wieś NŻ",,51.813580,19.620710,2,,0,,,0
1773,1907,"Byszewska-Byszewska 26",,51.804070,19.609790,1,,0,,,0
1774,1909,"Byszewska-Pomarańczowa",,51.799340,19.600390,1,,0,,,0
1775,3235,"Rokicińska-Młynarska",,51.728430,19.633150,2,,0,,,0
1776,1911,"Rokicińska-Andrzejki",,51.731570,19.627950,1,,0,,,0
1777,1914,"Gillette-Nowy Józefów",,51.739070,19.367610,1,,0,,,0
1778,1916,"Nowy Józefów-Golfowa",,51.736340,19.366790,1,,0,,,0
1781,1927,"Warszawska-Dw. Łódź Warszawska NŻ",,51.807760,19.473460,1,,0,,,0
1782,1931,"Warszawska-Deczyńskiego NŻ",,51.805560,19.468500,1,,0,,,0
1783,1933,"Warszawska-Irysowa NŻ",,51.803590,19.463780,1,,0,,,0
1798,1960,"Kusocińskiego-Retkińska",,51.752320,19.407190,1,,0,,,0
1799,1965,"Siostrzana-Graniczna NŻ",,51.703390,19.462220,1,,0,,,0
1800,1966,"Olechów",,51.733800,19.575870,1,,0,,,0
1802,1972,"Transmisyjna-Ofiar Terroryzmu 11 Wrześni",,51.732750,19.561280,1,,0,,,0
1803,1971,"Ofiar Terroryzmu 11 Września-Transmisyjn",,51.732190,19.560640,1,,0,,,0
1804,1968,"Ofiar Terroryzmu 11 Września-terminal Ol",,51.729770,19.553460,1,,0,,,0
1805,1969,"Ofiar Terroryzmu 11 Września-terminal Ol",,51.729580,19.551770,1,,0,,,0
1806,1980,"Ofiar Terroryzmu 11 Września-Dell NŻ",,51.733380,19.569130,1,,0,,,0
1807,3220,"Kalonka (osiedle)",,51.828630,19.574470,2,,0,,,0
1813,2003,"Wólczańska-Radwańska",,51.751890,19.455700,1,,0,,,0
1814,2009,"Graniczna-Przestrzenna NŻ",,51.707120,19.458200,1,,0,,,0
1815,2012,"Sortownia",,51.728660,19.395700,1,,0,,,0
1816,2015,"Chocianowice IKEA",,51.700870,19.413480,1,,0,,,0
1817,2020,"Pabianicka-Długa NŻ",,51.702630,19.418220,1,,0,,,0
1818,3002,"Staffa-Os. 650-lecia (Zgierz)",,51.866050,19.377960,3,,0,,,0
1819,3241,"Staffa-szkoła (Zgierz)",,51.862480,19.377730,3,,0,,,0
1820,3006,"Łaska -Wiejska (Pabianice)",,51.658470,19.323210,2,,0,,,0
1821,3188,"Łaska -Szarych Szeregów (Pab.)",,51.659660,19.325290,2,,0,,,0
1822,3009,"pl. Kilińskiego (Zgierz)",,51.854640,19.416150,2,,0,,,0
1823,3100,"1 Maja-3 Maja (Zgierz)",,51.851650,19.415120,2,,0,,,0
1824,3011,"Byszewy Majątek NŻ",,51.832250,19.630640,2,,0,,,0
1825,3079,"Byszewska-Boginia NŻ",,51.839760,19.633380,2,,0,,,0
1826,3012,"Byszewy Majątek NŻ",,51.831980,19.630410,2,,0,,,0
1827,3084,"Byszewy NŻ",,51.825960,19.627750,2,,0,,,0
1828,3096,"Łódzka-Adelmówek",,51.838490,19.420280,2,,0,,,0
1829,3021,"Łódzka-Chełmy",,51.834430,19.422760,2,,0,,,0
1830,3024,"Długa-Sierakowskiego (Zgierz)",,51.851930,19.434940,3,,0,,,0
1831,3023,"Długa-Łagiewnicka (Zgierz)",,51.850640,19.443110,1,,0,,,0
1832,3026,"Długa-Spacerowa (Zgierz)",,51.853110,19.427230,3,,0,,,0
1833,3025,"Długa-Sierakowskiego (Zgierz)",,51.851650,19.436660,3,,0,,,0
1834,3028,"Długa-Skłodowskiej-Curie (Zgierz)",,51.854010,19.421420,3,,0,,,0
1835,3027,"Długa-Spacerowa (Zgierz)",,51.853220,19.426100,3,,0,,,0
1836,3030,"1 Maja-pl. Kilińskiego (Zgierz)",,51.854820,19.416650,3,,0,,,0
1837,3029,"Długa-Skłodowskiej-Curie (Zgierz)",,51.854060,19.420590,3,,0,,,0
1838,3032,"1 Maja-Dubois (Zgierz)",,51.858430,19.417920,3,,0,,,0
1839,3031,"Długa-pl. Kilińskiego (Zgierz)",,51.854620,19.416870,3,,0,,,0
1840,3034,"1 Maja-Piłsudskiego (Zgierz)",,51.861440,19.416300,3,,0,,,0
1841,3033,"1 Maja-Dubois (Zgierz)",,51.858160,19.417760,3,,0,,,0
1842,3036,"Piłsudskiego-szkoła nr 1 (Zgierz)",,51.861170,19.408730,3,,0,,,0
1843,3038,"Musierowicza-Piątkowska (Zgierz)",,51.864140,19.405980,3,,0,,,0
1844,3037,"Piłsudskiego-szkoła nr 1 (Zgierz)",,51.860950,19.407910,3,,0,,,0
1845,3262,"1 Maja-Piłsudskiego (Zgierz)",,51.861290,19.416250,3,,0,,,0
1846,3040,"Musierowicza-Łęczycka (Zgierz)",,51.863620,19.401500,3,,0,,,0
1847,3042,"Gałczyńskiego-Parzęczewska  (Zgierz)",,51.861150,19.393910,3,,0,,,0
1848,3041,"Musierowicza-Łęczycka (Zgierz)",,51.863620,19.401840,3,,0,,,0
1849,3240,"Musierowicza-Piątkowska (Zgierz)",,51.864070,19.405720,3,,0,,,0
1850,3044,"Gałczyńskiego-Tuwima (Zgierz)",,51.857680,19.390630,3,,0,,,0
1851,3043,"Gałczyńskiego-Parzęczewska  (Zgierz)",,51.861190,19.394130,3,,0,,,0
1852,3046,"Tuwima-Sezam (Zgierz)",,51.857860,19.385020,3,,0,,,0
1853,3045,"Gałczyńskiego-Tuwima (Zgierz)",,51.858630,19.391120,3,,0,,,0
1854,3048,"Tuwima-Boya-Żeleńskiego (Zgierz)",,51.858110,19.379940,3,,0,,,0
1855,3047,"Sezam (Zgierz)",,51.857680,19.386350,3,,0,,,0
1856,3050,"Staffa-przychodnia (Zgierz)",,51.860240,19.378270,3,,0,,,0
1857,3049,"Tuwima-Boya-Żeleńskiego (Zgierz)",,51.858020,19.380590,3,,0,,,0
1858,3052,"Staffa-szkoła (Zgierz)",,51.863030,19.377760,3,,0,,,0
1859,3051,"Staffa-przychodnia (Zgierz)",,51.858760,19.378240,3,,0,,,0
1860,3053,"Staffa-Os. 650-lecia (Zgierz)",,51.866890,19.378430,3,,0,,,0
1861,3238,"Parzęczewska /Staffa(Zg.)",,51.867780,19.381960,3,,0,,,0
1862,3068,"pl. Łukasińskiego (Stryków)",,51.900710,19.601840,2,,0,,,0
1863,3254,"Warszawska-Legionów (Stryków)",,51.894870,19.596570,2,,0,,,0
1864,3072,"Dobra",,51.867540,19.570250,2,,0,,,0
1865,3191,"Sosnowiec",,51.880030,19.581190,2,,0,,,0
1866,3073,"Dobra",,51.866640,19.569300,2,,0,,,0
1867,3256,"Dobra Nowiny",,51.854750,19.563640,1,,0,,,0
1868,3077,"Plichtów NŻ",,51.820110,19.626110,2,,0,,,0
1869,3078,"Byszewy NŻ",,51.826400,19.627870,2,,0,,,0
1870,3080,"Skoszewy (szkoła)",,51.850880,19.635360,2,,0,,,0
1871,3081,"Skoszewy",,51.854800,19.638990,2,,0,,,0
1872,3082,"Skoszewy (szkoła)",,51.850760,19.635200,2,,0,,,0
1873,3083,"Byszewska-Boginia NŻ",,51.839420,19.633370,2,,0,,,0
1874,3217,"Boginia działki NŻ",,51.836430,19.618340,2,,0,,,0
1875,3085,"Plichtów NŻ",,51.819930,19.625900,2,,0,,,0
1876,3086,"Janów wieś NŻ",,51.813710,19.620690,2,,0,,,0
1877,3095,"Łódzka-Adelmówek",,51.838320,19.420350,2,,0,,,0
1878,3097,"Łódzka-Kurak (Zgierz)",,51.846470,19.412890,2,,0,,,0
1879,3099,"1 Maja-3 Maja (Zgierz)",,51.851640,19.415280,2,,0,,,0
1880,3098,"Łódzka-Kurak (Zgierz)",,51.846230,19.413000,2,,0,,,0
1881,3146,"Łódzka-Ksawerów",,51.689630,19.406320,2,,0,,,0
1882,3145,"Łódzka-Mały Skręt",,51.694880,19.409100,1,,0,,,0
1883,3148,"Łódzka-Widzew-Żdżary",,51.683060,19.402820,2,,0,,,0
1884,3147,"Łódzka-Ksawerów",,51.688770,19.405880,2,,0,,,0
1885,3150,"Łódzka-Teklin",,51.676730,19.399610,2,,0,,,0
1886,3149,"Łódzka-Widzew-Żdżary",,51.682530,19.402610,2,,0,,,0
1887,3152,"Dąbrowa (Pabianice)",,51.669870,19.395970,2,,0,,,0
1888,3151,"Łódzka-Teklin",,51.676260,19.399420,2,,0,,,0
1889,3154,"Warszawska-Duży Skręt (Pabianice)",,51.663920,19.392870,2,,0,,,0
1890,3153,"Dąbrowa (Pabianice)",,51.669980,19.396130,2,,0,,,0
1891,3156,"Warszawska-Tkaniny Techniczne (Pab.)",,51.663510,19.386160,2,,0,,,0
1892,3155,"Warszawska-Duży Skręt (Pabianice)",,51.664230,19.393140,2,,0,,,0
1893,3158,"Warszawska-Sikorskiego (Pabianice)",,51.663790,19.375910,2,,0,,,0
1894,3157,"Warszawska-Tkaniny Techniczne (Pab.)",,51.663430,19.386270,2,,0,,,0
1895,3160,"Warszawska-Kapliczna (Pabianice)",,51.663910,19.370130,2,,0,,,0
1896,3159,"Warszawska-Nawrockiego (Pabianice)",,51.663740,19.375490,2,,0,,,0
1897,3162,"Warszawska-Poprzeczna (Pabianice)",,51.663960,19.364950,2,,0,,,0
1898,3161,"Warszawska-3 Maja (Pabianice)",,51.663860,19.370290,2,,0,,,0
1899,3164,"Zamkowa-Zamek (Pabianice)",,51.663960,19.360670,2,,0,,,0
1900,3163,"Warszawska-Poprzeczna (Pabianice)",,51.663860,19.364610,2,,0,,,0
1901,3166,"Zamkowa-św. Jana (Pabianice)",,51.664360,19.354130,2,,0,,,0
1902,3165,"Zamkowa-kościół św. Mateusza (Pab.)",,51.663870,19.360860,2,,0,,,0
1903,3168,"Zamkowa-Traugutta (Pabianice)",,51.664500,19.351470,2,,0,,,0
1904,3167,"Zamkowa-Kilińskiego (Pabianice)",,51.664270,19.355150,2,,0,,,0
1905,3170,"Zamkowa-Lutomierska (Pabianice)",,51.664740,19.345730,2,,0,,,0
1906,3169,"Zamkowa-Narutowicza (Pabianice)",,51.664410,19.351470,2,,0,,,0
1907,3172,"Zamkowa-Staszewskiego (Pab.)",,51.664970,19.340570,2,,0,,,0
1908,3171,"Zamkowa-Wyspiańskiego (Pabianice)",,51.664670,19.345770,2,,0,,,0
1909,3174,"Łaska -Mielczarskiego (Pab.)",,51.664410,19.337170,2,,0,,,0
1910,3173,"Zamkowa-Konopnickiej (Pabianice)",,51.664870,19.341760,2,,0,,,0
1911,3176,"Łaska -Tkacka (Pabianice)",,51.662350,19.332030,2,,0,,,0
1912,3175,"Łaska -Mielczarskiego (Pab.)",,51.664380,19.337110,2,,0,,,0
1913,3187,"Łaska -Szarych Szeregów (Pab.)",,51.660320,19.326840,2,,0,,,0
1914,3177,"Łaska -Tkacka (Pabianice)",,51.662350,19.332040,2,,0,,,0
1915,3255,"Dobra Nowiny",,51.858000,19.565110,1,,0,,,0
1917,3253,"Warszawska-Legionów (Stryków)",,51.896170,19.598280,2,,0,,,0
1918,3261,"Corning (Smolice)",,51.892980,19.580820,2,,0,,,0
1919,3192,"Sosnowiec",,51.880880,19.581730,2,,0,,,0
1920,3200,"Wojska Polskiego-Bratoszewskiego (Aleks.",,51.816170,19.319610,2,,0,,,0
1921,3199,"Szatonia",,51.813780,19.330360,2,,0,,,0
1922,3204,"Wojska Polskiego-Krótka (Aleksandrów)",,51.817710,19.312340,2,,0,,,0
1923,3201,"Wojska Polskiego-Bratoszewskiego (Aleks.",,51.816460,19.317530,2,,0,,,0
1924,3202,"Wojska Polskiego-Południowa (Aleks.)",,51.818700,19.307470,2,,0,,,0
1925,3301,"Warszawska (Aleksandrów)",,51.821410,19.305030,2,,0,,,0
1926,3203,"Wojska Polskiego-Południowa (Aleks.)",,51.818540,19.307770,2,,0,,,0
1927,3211,"Niecki NŻ",,51.830790,19.583650,2,,0,,,0
1928,3248,"Borchówka 21 NŻ",,51.833390,19.588870,2,,0,,,0
1929,3212,"Niecki NŻ",,51.830890,19.583730,2,,0,,,0
1930,3219,"Kalonka (osiedle)",,51.828750,19.574730,2,,0,,,0
1931,3213,"Borchówka Las NŻ",,51.839520,19.602340,2,,0,,,0
1932,3264,"Borchówka 39 NŻ",,51.837360,19.596630,2,,0,,,0
1933,3214,"Borchówka Las NŻ",,51.839360,19.602060,2,,0,,,0
1934,3216,"Borchówka 7 NŻ",,51.834290,19.606930,2,,0,,,0
1935,3215,"Borchówka 7 NŻ",,51.834490,19.607440,2,,0,,,0
1936,3218,"Boginia działki NŻ",,51.836360,19.617680,2,,0,,,0
1940,3233,"Andrespol",,51.726380,19.637340,2,,0,,,0
1941,3237,"Andrespol O.S.P.",,51.726710,19.636430,2,,0,,,0
1942,3386,"Andrespol-Urząd Gminy",,51.724890,19.637770,2,,0,,,0
1943,3236,"Rokicińska-Młynarska",,51.729070,19.632340,2,,0,,,0
1944,3265,"Borchówka 39 NŻ",,51.837240,19.596480,2,,0,,,0
1945,3249,"Borchówka 21 NŻ",,51.833880,19.589720,2,,0,,,0
1946,3250,"Stryków Dworzec PKP",,51.910310,19.594420,2,,0,,,0
1947,3314,"Kopernika-Kolejowa (Stryków)",,51.905450,19.595360,2,,0,,,0
1948,3251,"Kopernika-Słowackiego (Stryków)",,51.902680,19.604650,2,,0,,,0
1949,3313,"Kopernika-Kolejowa (Stryków)",,51.905560,19.595270,2,,0,,,0
1950,3252,"Kopernika-Słowackiego (Stryków)",,51.903090,19.603630,2,,0,,,0
1951,3263,"pl. Łukasińskiego (Stryków)",,51.900830,19.601030,2,,0,,,0
1952,3257,"Corning (Smolice)",,51.893030,19.580600,2,,0,,,0
1953,3319,"Targowy Rynek",,51.827160,19.307250,2,,0,,,0
1954,3320,"Warszawska 16 (Aleksandrów)",,51.822180,19.305180,2,,0,,,0
1955,3321,"pl. 500-lecia(Rzgów)",,51.662480,19.490240,2,,0,,,0
1956,3336,"Rudzka-Łódzka NŻ (Rzgów)",,51.667560,19.486530,2,,0,,,0
1957,3323,"Tuszyńska (Rzgów)",,51.651780,19.494060,2,,0,,,0
1958,3339,"Tuszyńska-Kamienna NŻ (Rzgów)",,51.656740,19.493030,2,,0,,,0
1959,3324,"Rudzka-Nasienna NŻ (Rzgów)",,51.675190,19.475120,2,,0,,,0
1960,3327,"Grabina-Grabina 50 NŻ",,51.821080,19.590820,2,,0,,,0
1961,3326,"Grabina-Grabina/Lipowa 1 NŻ",,51.819590,19.596710,2,,0,,,0
1962,3329,"Bukowiec-Bukowiec 61 NŻ",,51.822160,19.584140,2,,0,,,0
1963,3328,"Grabina-Grabina 50 NŻ",,51.821180,19.590190,2,,0,,,0
1964,3331,"Kalonka-Kalonka/Centrum Ojca Pio",,51.824710,19.575530,2,,0,,,0
1965,3330,"Bukowiec-Bukowiec 61 NŻ",,51.822110,19.584190,2,,0,,,0
1966,3335,"Rudzka-Łódzka NŻ (Rzgów)",,51.667640,19.486220,2,,0,,,0
1967,3334,"Rudzka-Mała NŻ (Rzgów)",,51.671960,19.479940,2,,0,,,0
1968,3337,"pl. 500-lecia(Rzgów)",,51.662480,19.490010,2,,0,,,0
1969,3338,"Tuszyńska-Kamienna NŻ (Rzgów)",,51.656590,19.492950,2,,0,,,0
1970,3388,"Wiśniowa Góra-Szkoła",,51.720340,19.632260,2,,0,,,0
1971,3387,"Wiśniowa Góra-Akacjowa NŻ",,51.707010,19.623030,2,,0,,,0
1972,3395,"Tuszyńska-Kolumny",,51.702770,19.619920,2,,0,,,0
1973,3390,"Wiśniowa Góra-Piekarnicza",,51.715370,19.628930,2,,0,,,0
1974,3389,"Wiśniowa Góra-Szkoła",,51.721100,19.632960,2,,0,,,0
1975,3392,"Wiśniowa Góra-Jednostka Wojskowa",,51.710770,19.625700,2,,0,,,0
1976,3391,"Wiśniowa Góra-Piekarnicza",,51.715840,19.629380,2,,0,,,0
1977,3393,"Wiśniowa Góra-Jednostka Wojskowa",,51.711320,19.626280,2,,0,,,0
1978,3394,"Wiśniowa Góra-Akacjowa NŻ",,51.706400,19.622710,2,,0,,,0
1979,3396,"Tuszyńska-Kolumny",,51.702670,19.619970,2,,0,,,0
1987,0318,"Klonowa-Limanowskiego",,51.789860,19.429740,1,,0,,,0
1988,0439,"Limanowskiego-Mokra",,51.791130,19.425770,1,,0,,,0
1990,0449,"Limanowskiego-Mokra",,51.791130,19.426620,1,,0,,,0
1991,1499,"Złotno-Zaporowa",,51.777780,19.383570,1,,0,,,0
1992,1502,"Złotno-Podchorążych",,51.778330,19.387220,1,,0,,,0
1993,1503,"Złotno-Zaporowa",,51.777900,19.383570,1,,0,,,0
1994,1504,"Złotno-Legnicka NŻ",,51.777060,19.376910,1,,0,,,0
2000,0361,"Konstytucyjna-Małachowskiego NŻ",,51.771670,19.498990,1,,0,,,0
2001,0535,"Małachowskiego-Niciarniana",,51.771450,19.504890,1,,0,,,0
2005,0348,"Dw. Łódź Widzew",,51.762270,19.543330,1,,0,,,0
2020,4482,"Marysin Warszawska",,51.813390,19.486360,1,,0,,,0
2022,0245,"Kilińskiego-Narutowicza",,51.771670,19.463130,1,,0,,,0
2024,1140,"Śmigłego Rydza-Przybyszewskiego",,51.746690,19.490050,1,,0,,,0
2034,3401,"Kościuszki(Brzeziny)",,51.800990,19.743420,2,,0,,,0
2035,3402,"Kościuszki(Brzeziny)",,51.801170,19.742420,2,,0,,,0
2036,3403,"św. Anny",,51.799670,19.751450,2,,0,,,0
2038,3405,"Woj. Polskiego(Brzeziny)",,51.805540,19.755480,2,,0,,,0
2039,3406,"Traugutta(Brzeziny)",,51.800950,19.752630,2,,0,,,0
2040,3407,"Paprotnia NŻ",,51.804310,19.692810,2,,0,,,0
2041,3408,"Paprotnia NŻ",,51.804360,19.693870,2,,0,,,0
2042,3409,"Łódzka NŻ (Brzeziny)",,51.802670,19.719480,2,,0,,,0
2043,3410,"Łódzka NŻ (Brzeziny)",,51.802740,19.720250,2,,0,,,0
2044,0255,"Techniczna-Puszkina NŻ",,51.736890,19.533260,1,,0,,,0
2045,0256,"Techniczna 6 NŻ",,51.738850,19.537880,1,,0,,,0
2046,0185,"Franciszkańska-Tokarzewskiego",,51.790970,19.460090,1,,0,,,0
2049,0188,"Franciszkańska-Tokarzewskiego",,51.791030,19.459950,1,,0,,,0
2056,1492,"Podchorążych-Napoleońska",,51.779020,19.385030,1,,0,,,0
2057,1493,"Podchorążych-Napoleońska",,51.778770,19.386120,1,,0,,,0
2059,1831,"Podchorążych-Łucznicza NŻ",,51.780370,19.376270,1,,0,,,0
2060,1832,"Podchorążych-Łucznicza NŻ",,51.780100,19.377470,1,,0,,,0
2066,2031,"Podchorążych-Molla NŻ",,51.781370,19.369660,1,,0,,,0
2067,2032,"Podchorążych-Molla NŻ",,51.781210,19.370580,1,,0,,,0
2069,3246,"Niesięcin-Szczecińska NŻ",,51.774660,19.336080,2,,0,,,0
2070,3247,"Niesięcin-Szczecińska NŻ",,51.774760,19.336530,2,,0,,,0
2071,3411,"Niesięcin-Aleksandrowska NŻ",,51.774270,19.325910,2,,0,,,0
2072,3412,"Niesięcin-Niesięcin",,51.774290,19.315050,2,,0,,,0
2075,3415,"Rąbień Centrum NŻ",,51.798810,19.322680,2,,0,,,0
2076,3416,"Rąbień Centrum NŻ",,51.797970,19.322300,2,,0,,,0
2077,3417,"Zielony Romanów",,51.806510,19.321710,2,,0,,,0
2078,3418,"Niesięcin-Aleksandrowska NŻ",,51.774180,19.325570,2,,0,,,0
2080,0347,"Konstantynowska-Zaj. Muzealna Brus",,51.753650,19.381900,1,,0,,,0
2081,0357,"Konstantynowska-Zaj. Muzealna Brus",,51.753600,19.381930,1,,0,,,0
2082,2030,"Konstantynowska-Krakowska",,51.762710,19.408350,1,,0,,,0
2083,2034,"Lutomierska-Włókniarzy",,51.789420,19.422890,1,,0,,,0
2084,2035,"Lutomierska-Włókniarzy",,51.789220,19.422920,1,,0,,,0
2086,3008,"pl. Wolności(Konstantynów)",,51.750440,19.313480,2,,0,,,0
2088,3016,"Łódzka-Szkoła (Konstantynów)",,51.748530,19.354140,2,,0,,,0
2089,3017,"Łódzka-Szkoła (Konstantynów)",,51.748500,19.354160,2,,0,,,0
2090,3018,"Lutomierska-Ignacew (Konstantynów)",,51.759600,19.264800,2,,0,,,0
2091,3019,"Lutomierska-Ignacew (Konstantynów)",,51.759580,19.263310,2,,0,,,0
2092,3065,"Łódzka-pl. Kościuszki (Konst.)",,51.747580,19.325990,2,,0,,,0
2093,3066,"Jana Pawła II-pl. Kościuszki (Konst.)",,51.747600,19.325040,2,,0,,,0
2094,3089,"Lutomierska 95 NŻ (Konst.)",,51.754170,19.292620,2,,0,,,0
2095,3090,"Mirosławice II NŻ",,51.758970,19.241030,2,,0,,,0
2098,3093,"Mirosławice II NŻ",,51.758940,19.241420,2,,0,,,0
2099,3094,"Lutomierska 82 NŻ (Konst.)",,51.754130,19.292600,2,,0,,,0
2136,3269,"Mirosławice I NŻ",,51.759310,19.252880,2,,0,,,0
2137,3270,"Mirosławice I NŻ",,51.759280,19.252890,2,,0,,,0
2140,3273,"Lutomierska-Krzywa NŻ (Konstantynów)",,51.756720,19.279710,2,,0,,,0
2141,3274,"Lutomierska-Krzywa NŻ (Konstantynów)",,51.756840,19.279330,2,,0,,,0
2142,3275,"Lutomierska-Klonowa NŻ (Konstantynów)",,51.755780,19.284530,2,,0,,,0
2143,3276,"Lutomierska-Bechcice NŻ (Konstantynów)",,51.755110,19.287510,2,,0,,,0
2144,3277,"Lutomierska 55 NŻ (Konst.)",,51.752910,19.298900,2,,0,,,0
2145,3278,"Lutomierska 46 NŻ (Konst.)",,51.752760,19.299330,2,,0,,,0
2146,3279,"Lutomierska 13 (Konst.)",,51.751520,19.305860,2,,0,,,0
2147,3280,"Lutomierska 4 (Konst.)",,51.751400,19.306100,2,,0,,,0
2148,3281,"Jana Pawła II-pl. Wolności(Konstantynów)",,51.749970,19.313780,2,,0,,,0
2149,3282,"Jana Pawła II-pl. Wolności(Konstantynów)",,51.750020,19.313000,2,,0,,,0
2150,3283,"Jana Pawła II-Daszyńskiego (Konst.)",,51.748860,19.319430,2,,0,,,0
2151,3284,"Jana Pawła II-Moniuszki (Konstantynów)",,51.749020,19.318020,2,,0,,,0
2152,3285,"Łódzka-Żeromskiego (Konst.)",,51.746630,19.331010,2,,0,,,0
2153,3286,"Łódzka-Krótka (Konstantynów)",,51.746610,19.330170,2,,0,,,0
2154,3287,"Łódzka-Gdańska (Konstantynów)",,51.747330,19.339670,2,,0,,,0
2155,3288,"Łódzka-Gdańska (Konstantynów)",,51.747320,19.339910,2,,0,,,0
2156,3289,"Łódzka-Spółdzielcza (Konstantynów)",,51.748120,19.349030,2,,0,,,0
2157,3290,"Łódzka-Spółdzielcza (Konstantynów)",,51.748100,19.349320,2,,0,,,0
2158,3291,"Łódzka-Warzywnicza (Konstantynów)",,51.749000,19.358560,2,,0,,,0
2159,3292,"Łódzka-Warzywnicza (Konstantynów)",,51.748980,19.358690,2,,0,,,0
2160,3293,"Łódzka-Boczna (Konstantynów)",,51.750230,19.364820,2,,0,,,0
2161,3294,"Łódzka-Boczna (Konstantynów)",,51.750220,19.364910,2,,0,,,0
2162,3295,"Łódzka-Przygraniczna (Konst.)",,51.751670,19.372020,1,,0,,,0
2166,3419,"Zielony Romanów NŻ",,51.807340,19.321050,2,,0,,,0
2172,0788,"Sterlinga-pl. Dąbrowskiego",,51.772260,19.469320,1,,0,,,0
2175,2041,"Narutowicza-P.O.W. NŻ",,51.771480,19.465840,1,,0,,,0
2176,3422,"Starowa Góra-Centralna NŻ",,51.690690,19.476660,2,,0,,,0
2177,3423,"Starowa Góra-Centralna NŻ",,51.691030,19.477490,2,,0,,,0
2184,3003,"1 Maja-pl. Kilińskiego (Zgierz)",,51.854460,19.416320,2,,0,,,0
2198,3428,"Stróża-Gajowa NŻ",,51.696640,19.614600,2,,0,,,0
2199,3429,"Stróża-Gajowa NŻ",,51.696280,19.614450,2,,0,,,0
2200,3430,"Stróża-Ludwików",,51.691840,19.610280,2,,0,,,0
2202,2044,"Konstantynowska-Smulska",,51.751540,19.371910,1,,0,,,0
2203,2045,"Konstantynowska-Krańcowa",,51.759450,19.398980,1,,0,,,0
2204,2046,"Konstantynowska-Krańcowa",,51.759430,19.399040,1,,0,,,0
2208,3437,"Natolin NŻ",,51.794250,19.624840,2,,0,,,0
2209,3438,"Natolin NŻ",,51.795270,19.627260,2,,0,,,0
2211,3440,"Teolin NŻ",,51.799490,19.639280,2,,0,,,0
2212,3441,"Teolin NŻ",,51.800330,19.641230,2,,0,,,0
2213,3442,"Lipiny 67 NŻ",,51.806360,19.661600,2,,0,,,0
2214,3443,"Lipiny 67 NŻ",,51.806270,19.659160,2,,0,,,0
2215,3444,"Lipiny",,51.806290,19.667380,2,,0,,,0
2216,3445,"Lipiny",,51.806420,19.669490,2,,0,,,0
2217,3449,"Stary Imielnik-Stary Imielnik 45A",,51.846840,19.580940,2,,0,,,0
2218,3450,"Stary Imielnik-Stary Imielnik 45",,51.846920,19.580650,2,,0,,,0
2219,3451,"Dobieszków-O.Sz. i W",,51.851980,19.592660,2,,0,,,0
2220,3452,"Dobieszków-Hotel",,51.851930,19.592460,2,,0,,,0
2221,3453,"Dobieszków-Młyn",,51.855980,19.599150,2,,0,,,0
2222,3454,"Dobieszków-Młyn",,51.855310,19.599190,2,,0,,,0
2223,3455,"Dobieszków-Wieś",,51.859740,19.591570,2,,0,,,0
2224,3456,"Dobieszków-Wieś",,51.859510,19.591880,2,,0,,,0
2225,3457,"Michałówek-Michałówek",,51.863840,19.580630,2,,0,,,0
2226,3458,"Michałówek-Michałówek 26",,51.863560,19.581630,2,,0,,,0
2227,3459,"Michałówek / Dobra",,51.866910,19.570680,2,,0,,,0
2228,3465,"Stary Imielnik-Stary Imielnik 17",,51.846250,19.569780,2,,0,,,0
2229,3466,"Stary Imielnik-Stary Imielnik 18",,51.846400,19.570330,2,,0,,,0
2231,2062,"Uniwersytecka-Rewolucji 1905r.",,51.775300,19.476690,1,,0,,,0
2233,2070,"Lotnisko",,51.727290,19.400750,1,,0,,,0
2234,3431,"Dąbrowa NŻ",,51.816710,19.561530,2,,0,,,0
2235,3432,"Dąbrowa NŻ",,51.816610,19.561270,2,,0,,,0
2236,3433,"Kopanka-Kopanka 24a NŻ",,51.823390,19.562840,2,,0,,,0
2237,3434,"Kopanka-Kopanka 24a NŻ",,51.822920,19.562700,2,,0,,,0
2239,3475,"Konstantynowska-CPN NŻ",,51.810860,19.319230,2,,0,,,0
2240,3476,"Konstantynowska-CPN NŻ",,51.810170,19.319420,2,,0,,,0
2241,1495,"Złotno-Huta Jagodnica",,51.775570,19.349420,1,,0,,,0
2243,3420,"Rudzka-Nasienna NŻ (Rzgów)",,51.675810,19.473980,2,,0,,,0
2244,3421,"Rzgów-Zachodnia-Łódzka NŻ",,51.683170,19.476560,2,,0,,,0
2250,3424,"Stara Gadka-cmentarz NŻ",,51.677970,19.470390,2,,0,,,0
2251,3426,"Stara Gadka-Uczniowska NŻ",,51.683120,19.461760,2,,0,,,0
2252,3427,"Stara Gadka-Zdrojowa NŻ",,51.682860,19.462410,2,,0,,,0
2267,3435,"Kalonka NŻ",,51.827150,19.565050,2,,0,,,0
2268,3436,"Kalonka NŻ",,51.827220,19.565370,2,,0,,,0
2275,3448,"Stróża-Kolumny",,51.702190,19.619270,1,,0,,,0
2276,3467,"Wiączyń Dolny-Wiączyń Dolny 4 NŻ",,51.775660,19.613450,1,,0,,,0
2277,3468,"Wiączyń Dolny-Wiączyń Dolny 4 NŻ",,51.775910,19.613320,1,,0,,,0
2278,3469,"Wiączyń Dolny-Wiączyń Dolny 18 NŻ",,51.769020,19.622100,1,,0,,,0
2279,3470,"Wiączyń Dolny-Wiączyń Dolny 18 NŻ",,51.769280,19.621960,1,,0,,,0
2280,3471,"Wiączyń Dolny-Wiączyń Dolny Szkoła",,51.767040,19.624690,1,,0,,,0
2281,3472,"Wiączyń Dolny-Wiączyń Dolny Szkoła",,51.767580,19.624160,1,,0,,,0
2282,3473,"Wiączyń Dolny-Wiączyń Dolny 42 NŻ",,51.761900,19.631450,1,,0,,,0
2283,3474,"Wiączyń Dolny-Wiączyń Dolny 42 NŻ",,51.761830,19.631730,1,,0,,,0
2296,3477,"Paprotnia I NŻ",,51.803520,19.705440,2,,0,,,0
2297,3478,"Paprotnia I NŻ",,51.803400,19.708830,2,,0,,,0
2301,3367,"Tuszyńska-Rzemieślnicza NŻ (Rzgów)",,51.651110,19.493400,2,,0,,,0
2302,3368,"Tuszyńska-CH PTAK NŻ",,51.646530,19.493930,2,,0,,,0
2303,3384,"Tuszyńska-CH PTAK NŻ",,51.647150,19.493940,2,,0,,,0
2304,3481,"CT Ptak Mandoria",,51.646490,19.486240,2,,0,,,0
2305,3479,"Kalonka II",,51.827640,19.569270,2,,0,,,0
2306,3480,"Kalonka II",,51.827620,19.568760,2,,0,,,0
2308,2039,"Zarzewska-Rzgowska NŻ",,51.741460,19.465150,1,,0,,,0
2322,1580,"Unii Lubelskiej-Aquapark Fala",,51.765330,19.422660,1,,0,,,0
2329,0414,"Unii Lubelskiej-Dw. Łódź Kaliska",,51.757840,19.428960,1,,0,,,0
2330,1823,"Unii Lubelskiej-Aquapark Fala",,51.764960,19.423040,1,,0,,,0
2331,2071,"Karolewska-Włókniarzy (Dw. Ł. Kaliska)",,51.757260,19.432680,1,,0,,,0
2332,2072,"Karolewska-Włókniarzy (Dw. Ł. Kaliska)",,51.757150,19.432790,1,,0,,,0
2337,0181,"Św. Franciszka-Zenitowa",,51.726910,19.431490,1,,0,,,0
2338,1423,"Św. Franciszka-Zwrotnikowa",,51.726690,19.439050,1,,0,,,0
2339,1954,"Prądzyńskiego-Darniowa NŻ",,51.722980,19.430880,1,,0,,,0
2340,1955,"Prądzyńskiego-Rozwojowa",,51.723090,19.426980,1,,0,,,0
2364,0104,"Tatrzańska-Rydla",,51.736220,19.494380,1,,0,,,0
2365,0121,"Dąbrowskiego-Tatrzańska",,51.737320,19.492870,1,,0,,,0
2366,3483,"Stara Gadka-Skrajna",,51.688240,19.453280,1,,0,,,0
2367,3484,"Starowa Góra-Zagłoby",,51.696230,19.478640,1,,0,,,0
2368,4270,"Śmigłego Rydza-Grota-Roweckiego",,51.743280,19.489530,1,,0,,,0
2369,4271,"Śmigłego Rydza-Grota-Roweckiego",,51.742920,19.489010,1,,0,,,0
2376,0496,"Mickiewicza-Łąkowa NŻ",,51.756540,19.442970,1,,0,,,0
2377,0498,"Mickiewicza-Łąkowa NŻ",,51.756470,19.441660,1,,0,,,0
2379,1470,"Zielona-pl. Hallera",,51.768840,19.439490,1,,0,,,0
2381,1922,"Narutowicza-Kopcińskiego",,51.773050,19.484180,1,,0,,,0
2402,4076,"Srebrzyńska-Koziny",,51.772780,19.423000,1,,0,,,0
2405,4406,"Legionów-Cmentarna",,51.774940,19.442900,1,,0,,,0
2411,0665,"Służbowa-Jurczyńskiego NŻ",,51.760780,19.551300,1,,0,,,0
2412,0666,"Służbowa-Jurczyńskiego NŻ",,51.760680,19.551480,1,,0,,,0
2416,0703,"ŁSSE Nowy Józefów",,51.740920,19.367420,1,,0,,,0
2418,2042,"Gillette-Nowy Józefów",,51.740020,19.367550,1,,0,,,0
2425,3302,"Daszyńskiego-Sienkiewicza (Aleks.)",,51.823720,19.303640,2,,0,,,0
2426,3303,"1 Maja-MDK (Aleksandrów)",,51.822480,19.298260,2,,0,,,0
2427,3304,"1 Maja-MDK (Aleksandrów)",,51.821310,19.297780,2,,0,,,0
2428,3305,"Wierzbińska-11 Listopada (Aleks.)",,51.816440,19.301180,2,,0,,,0
2429,3306,"Daszyńskiego-Sienkiewicza (Aleks.)",,51.823860,19.302530,2,,0,,,0
2430,3315,"Pabianicka-Piłsudskiego (Aleks.)",,51.813310,19.316000,2,,0,,,0
2431,3317,"Pabianicka-Południowa (Aleks.)",,51.815270,19.306730,2,,0,,,0
2432,3482,"Poselska (Aleks.)",,51.808150,19.319290,2,,0,,,0
2433,3486,"Słowiańska-szkoła (Rąbień)",,51.789650,19.322480,2,,0,,,0
2434,3487,"Słowiańska-szkoła (Rąbień)",,51.789530,19.321780,2,,0,,,0
2435,3488,"Słowiańska-Szaraka NŻ (Rąbień)",,51.790070,19.331610,2,,0,,,0
2436,3489,"Słowiańska-Szaraka NŻ (Rąbień)",,51.790020,19.332220,2,,0,,,0
2437,3490,"Słowiańska-Wysoka NŻ (Rąbień)",,51.790570,19.343230,2,,0,,,0
2438,3491,"Słowiańska-Wysoka NŻ (Rąbień)",,51.790480,19.342640,2,,0,,,0
2439,3492,"Słowiańska-Szczecińska (Anton.)",,51.790000,19.353460,2,,0,,,0
2440,3493,"Słowiańska-Szczecińska (Anton.)",,51.789960,19.352810,2,,0,,,0
2442,1644,"Instytut CZMP",,51.703350,19.481120,1,,0,,,0
2444,2037,"Kotoniarska-Szybowa NŻ",,51.722750,19.527310,1,,0,,,0
2445,2038,"Kotoniarska-Szybowa NŻ",,51.722610,19.526680,1,,0,,,0
2446,2063,"Kolumny-Rzgowska NŻ",,51.709290,19.489070,1,,0,,,0
2447,2064,"Kolumny-Rzgowska NŻ",,51.709550,19.489680,1,,0,,,0
2448,2065,"Kolumny-Kolumny 88 NŻ",,51.710730,19.501430,1,,0,,,0
2449,2066,"Kolumny-Kolumny 88 NŻ",,51.710800,19.502200,1,,0,,,0
2450,2067,"Kolumny-Kolumny 118 NŻ",,51.709050,19.508400,1,,0,,,0
2451,2068,"Kolumny-Kolumny 118 NŻ",,51.709110,19.508410,1,,0,,,0
2457,0248,"Struga-Piotrkowska",,51.765520,19.456440,1,,0,,,0
2459,0503,"Marmurowa-Opolska NŻ",,51.807100,19.545330,1,,0,,,0
2460,0504,"Marmurowa-Opolska NŻ",,51.807040,19.545420,1,,0,,,0
2461,3494,"Paprotnia-Moczydła NŻ",,51.805720,19.677610,2,,0,,,0
2462,3495,"Paprotnia-Moczydła NŻ",,51.805880,19.676910,2,,0,,,0
2463,0963,"Teofilów Rojna",,51.795800,19.361410,1,,0,,,0
2465,0797,"pl. Niepodległości",,51.740340,19.463120,1,,0,,,0
2466,1441,"Zgierska-Sikorskiego NŻ",,51.816930,19.433780,1,,0,,,0
2467,1753,"Dąbrowskiego-Dw. Łódź Dąbrowa NŻ",,51.735670,19.510920,1,,0,,,0
2468,1754,"Dąbrowskiego-Dw. Łódź Dąbrowa NŻ",,51.736110,19.511200,1,,0,,,0
2469,3498,"Innowacyjna",,51.745020,19.363400,1,,0,,,0
2470,3499,"ŁSSE ks. Janika",,51.743120,19.360660,1,,0,,,0
2471,3500,"ŁSSE Inwestycyjna",,51.740980,19.362240,1,,0,,,0
2491,4590,"Dolna-Łagiewnicka",,51.791330,19.454320,1,,0,,,0
2492,4591,"Limanowskiego-Zachodnia",,51.787320,19.447800,1,,0,,,0
2495,4338,"Wólczańska-Radwańska",,51.752630,19.455450,1,,0,,,0
2498,1310,"Rojna-Wiernej Rzeki",,51.793630,19.379760,1,,0,,,0
2499,1311,"Rojna-Wiernej Rzeki",,51.793800,19.379970,1,,0,,,0
2515,0867,"Zagajnikowa-Okopowa",,51.795070,19.477010,1,,0,,,0
2516,0868,"Zagajnikowa-Okopowa",,51.795750,19.476520,1,,0,,,0
2517,0947,"Rewolucji 1905r.-Wschodnia",,51.775080,19.459270,1,,0,,,0
2520,0500,"Maczka-Pienista NŻ",,51.733280,19.405070,1,,0,,,0
2525,3501,"Wiączyń Dolny 96 NŻ",,51.757760,19.631640,1,,0,,,0
2526,3502,"Wiączyń Dolny 96 NŻ",,51.757390,19.631470,1,,0,,,0
2541,0627,"Lodowa-Przybyszewskiego NŻ",,51.751120,19.520720,1,,0,,,0
2547,0667,"Ustronna-Zagadkowa NŻ",,51.707720,19.468540,1,,0,,,0
2548,0668,"Ustronna-Zagadkowa NŻ",,51.707590,19.468650,1,,0,,,0
2549,0777,"Siostrzana-Bartoszewskiego",,51.705530,19.468160,1,,0,,,0
2550,0778,"Siostrzana-Bartoszewskiego",,51.705140,19.466660,1,,0,,,0
2551,0780,"Paradna-Ustronna",,51.711620,19.466550,1,,0,,,0
2552,0862,"Pryncypalna-Bartoszewskiego NŻ",,51.717710,19.457750,1,,0,,,0
2553,0863,"Pryncypalna-Bartoszewskiego NŻ",,51.717430,19.456440,1,,0,,,0
2554,0937,"Bartoszewskiego-Pabianicka",,51.726120,19.448320,1,,0,,,0
2555,0938,"Bartoszewskiego-Pryncypalna",,51.718140,19.456970,1,,0,,,0
2556,0939,"Bartoszewskiego-Pryncypalna",,51.716920,19.457270,1,,0,,,0
2557,0940,"Bartoszewskiego-Demokratyczna",,51.711180,19.462310,1,,0,,,0
2558,0941,"Bartoszewskiego-Demokratyczna",,51.712570,19.462220,1,,0,,,0
2559,0942,"Bartoszewskiego-Siostrzana",,51.704810,19.467880,1,,0,,,0
2560,0943,"Bartoszewskiego-Siostrzana",,51.705970,19.467310,1,,0,,,0
2561,0989,"Rzgowska-Bartoszewskiego NŻ",,51.700620,19.480120,1,,0,,,0
2562,1034,"Bartoszewskiego-Rzgowska NŻ",,51.700150,19.478600,1,,0,,,0
2563,1298,"Jana Pawła II-Pabianicka",,51.727750,19.447040,1,,0,,,0
2564,1299,"Pabianicka-Dw. Łódź Pabianicka NŻ",,51.726330,19.446870,1,,0,,,0
2565,2073,"Przestrzenna-Rudzka",,51.703070,19.437810,1,,0,,,0
2567,3504,"Stara Gadka-cmentarz NŻ",,51.678310,19.469990,2,,0,,,0
2579,2048,"Kopcińskiego-Piłsudskiego",,51.763130,19.484850,1,,0,,,0
2580,0779,"Traktorowa-Rojna",,51.791850,19.393170,1,,0,,,0
2581,0781,"Traktorowa-Rojna",,51.793050,19.393730,1,,0,,,0
2589,0508,"Brójecka-Czternastu Straconych NŻ",,51.708620,19.544610,1,,0,,,0
2590,0510,"Brójecka-Czternastu Straconych NŻ",,51.707960,19.544970,1,,0,,,0
2592,1186,"Bronisin-Brójecka NŻ",,51.691740,19.529100,1,,0,,,0
2593,1190,"Bronisin-Paprociowa NŻ",,51.698980,19.526120,1,,0,,,0
2594,1243,"Bronisin-Paprociowa NŻ",,51.698600,19.526240,1,,0,,,0
2595,1245,"Bronisin-Wiskicka NŻ",,51.702880,19.519740,1,,0,,,0
2596,1247,"Bronisin-Wiskicka NŻ",,51.703190,19.519600,1,,0,,,0
2597,3505,"Wiączyń Dolny 16 NŻ",,51.771450,19.619110,1,,0,,,0
2598,3506,"Wiączyń Dolny 16 NŻ",,51.771780,19.618520,1,,0,,,0
2606,2074,"Brójecka-Paprociowa NŻ",,51.697580,19.539430,1,,0,,,0
2607,2075,"Brójecka-Paprociowa NŻ",,51.697400,19.539070,1,,0,,,0
2608,1117,"Maczka-Pienista NŻ",,51.732960,19.404920,1,,0,,,0
2611,3178,"Dworzec PKP(Pabianice)",,51.660380,19.325460,2,,0,,,0
2612,3340,"Myśliwska-Wschodnia(Pabianice)",,51.660450,19.389540,2,,0,,,0
2613,3341,"Myśliwska-Skargi(Pabianice)",,51.660570,19.389700,2,,0,,,0
2614,3342,"Myśliwska-Podleśna(Pabianice)",,51.655290,19.388700,2,,0,,,0
2615,3343,"Myśliwska-Dolna(Pabianice)",,51.655920,19.388960,2,,0,,,0
2616,3344,"Waltera - Janke pętla(Pabianice)",,51.652350,19.387690,2,,0,,,0
2617,3345,"Waltera Janke-Waltera - Janke bl. 243(Pa",,51.651990,19.382010,2,,0,,,0
2618,3346,"Waltera Janke-Waltera - Janke bl. 250(Pa",,51.651870,19.383030,2,,0,,,0
2619,3347,"Waltera - Janke bl. 221(Pabianice)",,51.651770,19.377160,2,,0,,,0
2620,3348,"Waltera - Janke bl. 228(Pabianice)",,51.651680,19.378190,2,,0,,,0
2621,3349,"Nawrockiego-Waltera - Janke(Pabianice)",,51.651970,19.373510,2,,0,,,0
2622,3350,"Waltera Janke-Nawrockiego (Pabianice)",,51.651520,19.374360,2,,0,,,0
2623,3351,"Nawrockiego-Mokra(Pabianice)",,51.654470,19.374330,2,,0,,,0
2624,3352,"Nawrockiego-Gawrońska(Pabianice)",,51.653970,19.373920,2,,0,,,0
2625,3353,"Grota-Roweckiego-Gryzla(Pabianice)",,51.656400,19.373140,2,,0,,,0
2626,3354,"Grota-Roweckiego-Nawrockiego (Pabianice)",,51.656200,19.373920,2,,0,,,0
2627,3355,"Grota-Roweckiego-Bugaj(Pabianice)",,51.656720,19.367900,2,,0,,,0
2628,3356,"Grota-Roweckiego-os.Kopernika(Pabianice)",,51.656650,19.367440,2,,0,,,0
2629,3357,"Grota-Roweckiego-Kilińskiego (Pabianice)",,51.657370,19.357820,2,,0,,,0
2630,3359,"Grota-Roweckiego-Hala Sportowa(Pabianice",,51.657190,19.358770,2,,0,,,0
2631,3360,"Kilińskiego-Moniuszki (Pabianice)",,51.660900,19.354420,2,,0,,,0
2632,3361,"Kilińskiego-Moniuszki (Pabianice)",,51.659220,19.354730,2,,0,,,0
2634,3363,"Kilińskiego-SDH(Pabianice)",,51.663620,19.354500,2,,0,,,0
2636,3365,"Moniuszki-Zielona(Pabianice)",,51.660930,19.339850,2,,0,,,0
2637,3366,"Moniuszki-Niecała(Pabianice)",,51.657860,19.331150,2,,0,,,0
2638,3369,"Moniuszki-Ostatnia(Pabianice)",,51.658360,19.331780,2,,0,,,0
2639,3370,"Moniuszki-Szarych Szeregów (Pab.)",,51.656430,19.328100,2,,0,,,0
2640,3371,"Moniuszki-Wiejska (Pabianice)",,51.655500,19.326650,2,,0,,,0
2641,3372,"Wiejska-DPS(Pabianice)",,51.657960,19.324240,2,,0,,,0
2642,3373,"Wiejska-Łaska (Pabianice)",,51.658420,19.323740,2,,0,,,0
2643,3239,"Parzęczewska-Parzęczewska /Staffa(Zg.)",,51.867850,19.382030,3,,0,,,0
2644,3358,"Waltera - Janke pętla(Pabianice)",,51.652340,19.387660,2,,0,,,0
2649,2076,"Józefiaka-Zakładowa NŻ",,51.738320,19.584990,1,,0,,,0
2650,2077,"Józefiaka-Zakładowa NŻ",,51.737240,19.584100,1,,0,,,0
2657,4662,"Śmigłego Rydza-Dąbrowskiego",,51.738170,19.489190,1,,0,,,0
2658,4663,"Dąbrowskiego-Tatrzańska",,51.736780,19.496010,1,,0,,,0
2670,3374,"Brzezińska-Rokicińska(Andrespol)",,51.725910,19.639480,2,,0,,,0
2671,3375,"Brzezińska-Sienkiewicza NŻ (Bedoń Przyko",,51.733960,19.645060,2,,0,,,0
2672,3376,"Brzezińska-Sienkiewicza NŻ (Bedoń Przyko",,51.732850,19.644430,2,,0,,,0
2673,3377,"Ogrodowa-Brzezińska NŻ (Bedoń Przykoście",,51.736700,19.645580,2,,0,,,0
2674,3378,"Ogrodowa-Brzezińska NŻ (Bedoń Przykoście",,51.736750,19.645570,2,,0,,,0
2675,3379,"Ogrodowa-Magdalenki NŻ (Bedoń Przykoście",,51.738030,19.638470,2,,0,,,0
2676,3380,"Ogrodowa-Magdalenki NŻ (Bedoń Przykoście",,51.738000,19.638460,2,,0,,,0
2677,3381,"Bedoń Kościelna/Kościół",,51.737260,19.634770,2,,0,,,0
2698,2080,"Konstantynowska-ZOO Orientarium",,51.764230,19.412930,1,,0,,,0
2701,1166,"Nawrot-Sienkiewicza",,51.762600,19.461450,1,,0,,,0
2710,4676,"Unii Lubelskiej-Sport Arena P&R",,51.757740,19.428920,1,,0,,,0
2715,4690,"Legionów-Żeligowskiego",,51.773350,19.438390,1,,0,,,0
2716,4691,"Legionów-Artyleryjska NŻ",,51.771100,19.431880,1,,0,,,0
2718,4693,"Srebrzyńska-Kasprzaka",,51.773650,19.428130,1,,0,,,0
2720,2121,"Zgierska-Julianowska",,51.796780,19.444430,1,,0,,,0
2722,3197,"Przedwiośnie(Brzeziny)",,51.800970,19.762900,2,,0,,,0
2723,3242,"Bohaterów Warszawy-szkoła (Brzeziny)",,51.801230,19.758910,2,,0,,,0
2724,3243,"Głowackiego(Brzeziny)",,51.803820,19.762310,2,,0,,,0
2725,3245,"Modrzewskiego-Biedronka(Brzeziny)",,51.802330,19.756060,2,,0,,,0
2732,1730,"pl. Mikulskiego",,51.767390,19.486090,1,,0,,,0
2736,3519,"Boginia chłodnia NŻ",,51.836670,19.626690,2,,0,,,0
2737,3520,"Boginia chłodnia NŻ",,51.836710,19.626340,2,,0,,,0
2746,1518,"Żeromskiego-Kopernika",,51.762820,19.447420,1,,0,,,0
2750,2122,"Obywatelska-Obywatelska 106",,51.737000,19.431140,1,,0,,,0
2751,4708,"Wojska Polskiego-Głowackiego NŻ",,51.787120,19.472150,1,,0,,,0
2752,4709,"Wojska Polskiego-Głowackiego NŻ",,51.786980,19.470900,1,,0,,,0
2758,2123,"Politechniki-Targi Łódzkie",,51.749950,19.450040,1,,0,,,0
2759,2124,"Politechniki-Targi Łódzkie",,51.748980,19.450150,1,,0,,,0
2760,2086,"Wyszyńskiego-Armii Krajowej",,51.746370,19.398760,1,,0,,,0
2761,2087,"Wyszyńskiego-Armii Krajowej",,51.746450,19.399430,1,,0,,,0
2762,2088,"Wyszyńskiego-Retkińska",,51.748080,19.405060,1,,0,,,0
2763,2089,"Wyszyńskiego-Retkińska",,51.748020,19.405590,1,,0,,,0
2765,2091,"Włókniarzy-Mickiewicza (Dw. Ł. Kaliska)",,51.756690,19.434490,1,,0,,,0
2766,2092,"Włókniarzy-Mickiewicza (Dw. Ł. Kaliska)",,51.756480,19.434480,1,,0,,,0
2767,2125,"Bandurskiego-Wróblewskiego",,51.750440,19.419270,1,,0,,,0
2768,2126,"Bandurskiego-Wróblewskiego",,51.750300,19.418610,1,,0,,,0
2772,2082,"Retkinia",,51.742030,19.384480,1,,0,,,0
2773,2083,"Retkinia",,51.742430,19.384240,1,,0,,,0
2774,2084,"Retkinia",,51.742450,19.383520,1,,0,,,0
2775,2085,"Retkinia",,51.742420,19.383910,1,,0,,,0
2776,2093,"Włókniarzy-Mickiewicza (Dw. Ł. Kaliska)",,51.756840,19.434560,1,,0,,,0
2777,2094,"Piotrkowska Centrum",,51.759300,19.456530,1,,0,,,0
2778,2095,"Piotrkowska Centrum",,51.759160,19.457620,1,,0,,,0
2779,2097,"Puszkina-Rondo Inwalidów",,51.760150,19.536780,1,,0,,,0
2780,2098,"Puszkina-Rondo Inwalidów",,51.759710,19.536390,1,,0,,,0
2781,2099,"Rokicińska-Gogola",,51.759540,19.544200,1,,0,,,0
2783,2101,"Rokicińska-Gogola",,51.759520,19.543790,1,,0,,,0
2785,2103,"Rokicińska-Książąt Polskich",,51.755510,19.565930,1,,0,,,0
2786,2104,"Rokicińska-Książąt Polskich",,51.755420,19.565960,1,,0,,,0
2787,2105,"Hetmańska-Janów",,51.752150,19.574800,1,,0,,,0
2788,2106,"Hetmańska-Janów",,51.752110,19.574640,1,,0,,,0
2789,2107,"Hetmańska-Zagłoby",,51.747420,19.572560,1,,0,,,0
2790,2108,"Hetmańska-Zagłoby",,51.747250,19.572270,1,,0,,,0
2791,2109,"Hetmańska-Dąbrówki",,51.743420,19.570720,1,,0,,,0
2792,2110,"Hetmańska-Dąbrówki",,51.743240,19.570430,1,,0,,,0
2793,2111,"Hetmańska-Zakładowa",,51.740840,19.569470,1,,0,,,0
2794,2112,"Hetmańska-Zakładowa",,51.739980,19.568910,1,,0,,,0
2795,2113,"Odnowiciela-Hetmańska",,51.737010,19.566430,1,,0,,,0
2796,2114,"Odnowiciela-Hetmańska",,51.736760,19.566610,1,,0,,,0
2797,2115,"Ofiar Terroryzmu 11 Września-Dell",,51.733810,19.568990,1,,0,,,0
2798,2116,"Ofiar Terroryzmu 11 Września-Dell",,51.733750,19.569440,1,,0,,,0
2799,2117,"Ofiar Terroryzmu 11 Września-Dell NŻ",,51.733490,19.568570,1,,0,,,0
2800,2118,"OLECHÓW",,51.733590,19.575660,1,,0,,,0
2801,2119,"OLECHÓW",,51.734100,19.576690,1,,0,,,0
2802,2127,"Piłsudskiego-CH Tulipan",,51.762670,19.496320,1,,0,,,0
2803,2128,"Piłsudskiego-CH Tulipan",,51.762470,19.497990,1,,0,,,0
2805,2132,"cm. Zarzew",,51.749250,19.520210,1,,0,,,0
2806,2133,"Lodowa-Przybyszewskiego",,51.751030,19.520480,1,,0,,,0
2807,2134,"Lodowa-Przybyszewskiego",,51.751210,19.520550,1,,0,,,0
2808,4265,"Ogrodowa-Karskiego",,51.776940,19.440080,1,,0,,,0
2811,2137,"Mickiewicza-Kościuszki",,51.758860,19.454800,1,,0,,,0
2813,2138,"Zgierska-cm. Radogoszcz",,51.806980,19.439490,1,,0,,,0
2814,2139,"Zgierska-cm. Radogoszcz",,51.806910,19.439410,1,,0,,,0
2815,3521,"Bronisin Dworski-Pogodna NŻ",,51.692480,19.533810,1,,0,,,0
2816,3522,"Bronisin Dworski-Pogodna NŻ",,51.692380,19.533640,1,,0,,,0
2817,2090,"Bandurskiego-Dw. Łódź Kaliska",,51.755760,19.432980,1,,0,,,0
2819,2141,"Żeromskiego-Mickiewicza",,51.759990,19.447810,1,,0,,,0
2823,1300,"Pomorska-Edwarda",,51.774950,19.520820,1,,0,,,0
2824,2051,"Pomorska-Dw. Łódź Stoki NŻ",,51.776030,19.510180,1,,0,,,0
2832,2143,"Sąsieczno",,51.744840,19.627230,1,,0,,,0
2833,2144,"Gajcego-Rataja NŻ",,51.747850,19.623130,1,,0,,,0
2834,2145,"Gajcego-Rataja NŻ",,51.747800,19.623220,1,,0,,,0
2835,2146,"Gajcego-Szelburg-Zarembiny NŻ",,51.745790,19.620020,1,,0,,,0
2836,2147,"Gajcego-Szelburg-Zarembiny NŻ",,51.745780,19.620110,1,,0,,,0
2837,2148,"Gajcego-Dw. Łódź Andrzejów NŻ",,51.742530,19.615060,1,,0,,,0
2838,2149,"Gajcego-Dw. Łódź Andrzejów NŻ",,51.742500,19.615170,1,,0,,,0
2839,2150,"Gajcego-Rokicińska NŻ",,51.740840,19.612640,1,,0,,,0
2852,2156,"6 Sierpnia-Pogonowskiego NŻ",,51.767450,19.441840,1,,0,,,0
2854,2155,"Pabianicka-Wólczańska",,51.736030,19.458720,1,,0,,,0
2859,2154,"Pabianicka-Wólczańska",,51.736570,19.459640,1,,0,,,0
2860,2174,"Okólna-Łagiewnicka",,51.846610,19.469040,1,,0,,,0
2861,2177,"Kilińskiego-Dw. Łódź Chojny",,51.727840,19.480220,1,,0,,,0
2865,0864,"Poronińska-Dw. Łódź Stoki NŻ",,51.776380,19.509730,1,,0,,,0
2866,0975,"CKD stomatologia",,51.775630,19.508200,1,,0,,,0
2867,1119,"Szczecińska-cm. Szczecińska",,51.816860,19.382940,1,,0,,,0
2868,1120,"Szczecińska-Liściasta NŻ",,51.822730,19.389050,1,,0,,,0
2869,1126,"Szczecińska-Liściasta NŻ",,51.822760,19.388990,1,,0,,,0
2870,1127,"Szczecińska-cm. Szczecińska",,51.816360,19.382240,1,,0,,,0
2871,1459,"Pomorska-Edwarda",,51.775040,19.520730,1,,0,,,0
2872,1509,"Szczecińska-Rojna",,51.795270,19.359750,1,,0,,,0
2873,1543,"Rąbieńska-Szwadronowa NŻ",,51.788510,19.371850,1,,0,,,0
2874,1544,"Rąbieńska-Podjazdowa NŻ",,51.784290,19.384240,1,,0,,,0
2875,1545,"Rąbieńska-Traktorowa",,51.782730,19.390090,1,,0,,,0
2876,1546,"Rąbieńska-Traktorowa",,51.782910,19.389480,1,,0,,,0
2877,1547,"Rąbieńska-Podjazdowa NŻ",,51.784050,19.384990,1,,0,,,0
2878,1548,"Rąbieńska-Szwadronowa NŻ",,51.787810,19.374070,1,,0,,,0
2880,1550,"Rąbieńska-Szczecińska",,51.789780,19.355510,1,,0,,,0
2881,1551,"Transmisyjna-Kosodrzewiny NŻ",,51.758440,19.576680,1,,0,,,0
2882,1569,"Rąbieńska-Wojskowa NŻ",,51.789130,19.366330,1,,0,,,0
2883,1570,"Rąbieńska-Wojskowa NŻ",,51.789120,19.367820,1,,0,,,0
2884,1744,"Transmisyjna-Kosodrzewiny NŻ",,51.758370,19.576610,1,,0,,,0
2885,1836,"Rąbieńska-Cieplarniana NŻ",,51.786130,19.379320,1,,0,,,0
2886,1837,"Rąbieńska-Cieplarniana NŻ",,51.786360,19.378660,1,,0,,,0
2887,3056,"Popiełuszki-ks. Popieluszki  (Zgierz)",,51.854730,19.408710,3,,0,,,0
2888,3057,"Popiełuszki-Łódzka (Zgierz)",,51.852930,19.408130,3,,0,,,0
2889,3058,"Śniechowskiego-Śniechowskiego (Zgierz)",,51.850140,19.402650,3,,0,,,0
2890,3059,"Konstantynowska-cmentarz (Zgierz)",,51.845030,19.401420,3,,0,,,0
2891,3060,"Konstantynowska-cmentarz (Zgierz)",,51.844470,19.401410,3,,0,,,0
2892,3061,"Śniechowskiego (Zgierz)",,51.850100,19.402780,3,,0,,,0
2893,3062,"Śniechowskiego-Łódzka (Zgierz)",,51.851460,19.406650,3,,0,,,0
2894,3064,"Konstantynowska-tor PKP (Zgierz)",,51.842050,19.400690,3,,0,,,0
2895,3221,"Długa-pl. Kilińskiego (Zgierz)",,51.854780,19.416200,3,,0,,,0
2896,3234,"Konstantynowska-Sokołowska(Zgierz)",,51.847910,19.402250,3,,0,,,0
2897,3267,"ks. Popieluszki  (Zgierz)",,51.855410,19.409050,3,,0,,,0
2898,3460,"Konstantynowska-Kocidłowska",,51.826250,19.391410,1,,0,,,0
2899,3461,"Konstantynowska-Kocidłowska",,51.826120,19.391150,1,,0,,,0
2900,3462,"Konstantynowska-Okręglik (Zgierz)",,51.834170,19.396470,3,,0,,,0
2901,3463,"Konstantynowska-Okręglik (Zgierz)",,51.834070,19.396240,3,,0,,,0
2902,3464,"Konstantynowska-tor PKP (Zgierz)",,51.842010,19.400310,3,,0,,,0
2903,3485,"Konstantynowska-Kwasowa",,51.837060,19.398210,3,,0,,,0
2911,2175,"Rąbieńska-Kwiatowa NŻ",,51.781260,19.395110,1,,0,,,0
2912,2176,"Rąbieńska-Kwiatowa NŻ",,51.781740,19.394200,1,,0,,,0
2915,2183,"Popiełuszki-Maratońska",,51.736980,19.386090,1,,0,,,0
2931,1880,"Okulickiego-Zgierska NŻ",,51.828790,19.425390,1,,0,,,0
2932,2184,"Nastrojowa-pl. Słoneczny",,51.820120,19.442560,1,,0,,,0
2933,2185,"Świtezianki-Nastrojowa",,51.824170,19.437630,1,,0,,,0
2934,2187,"Świtezianki-Zgierska",,51.822540,19.431130,1,,0,,,0
2935,2188,"Okulickiego-Zgierska NŻ",,51.828840,19.425440,1,,0,,,0
2936,2189,"11 Listopada-Dw. Łódź Radogoszcz Zach.NŻ",,51.820910,19.416710,1,,0,,,0
2937,2190,"11 Listopada-Dw. Łódź Radogoszcz Zach.NŻ",,51.820220,19.417360,1,,0,,,0
2938,2191,"11 Listopada-Radogoszcz Zachód",,51.818280,19.419020,1,,0,,,0
2939,2192,"Świtezianki-Zgierska",,51.822810,19.432610,1,,0,,,0
2940,2194,"Zielony Romanów",,51.807470,19.326230,1,,0,,,0
2941,2195,"Romanowska-Romanowska 27 NŻ",,51.807120,19.336900,1,,0,,,0
2942,2196,"Romanowska-Romanowska 27 NŻ",,51.807140,19.335490,1,,0,,,0
2943,2197,"Romanowska-Aleksandrowska NŻ",,51.810830,19.340220,1,,0,,,0
2944,2198,"Romanowska-Aleksandrowska NŻ",,51.811280,19.340370,1,,0,,,0
2945,2199,"Okulickiego-11 Listopada NŻ",,51.827120,19.419010,1,,0,,,0
2946,2200,"Okulickiego-11 Listopada NŻ",,51.827180,19.419010,1,,0,,,0
2947,2201,"Świtezianki-Nastrojowa",,51.824560,19.439510,1,,0,,,0
2950,2053,"Śmigłego Rydza-Dąbrowskiego",,51.738470,19.488780,1,,0,,,0
2952,4284,"Śmigłego Rydza-Broniewskiego",,51.734290,19.488670,1,,0,,,0
2969,3541,"Moniuszki-Toruńska (Pabianice)",,51.659690,19.334960,2,,0,,,0
2970,3542,"Moniuszki-Wysoka (Pabianice)",,51.659960,19.335940,2,,0,,,0
2971,4751,"Próchnika-Zachodnia",,51.774390,19.451710,1,,0,,,0
2976,2206,"Przybyszewskiego-Rondo Sybiraków",,51.752450,19.532940,1,,0,,,0
2977,2207,"Przybyszewskiego-Rondo Sybiraków",,51.752750,19.533320,1,,0,,,0
2978,2210,"Nowogrodzka-Mazowiecka",,51.767160,19.512350,1,,0,,,0
2979,2212,"Edwarda-Czechosłowacka NŻ",,51.769830,19.516120,1,,0,,,0
2980,3054,"Piątkowska /park (Zgierz)",,51.860640,19.406530,3,,0,,,0
2981,3055,"Piątkowska /park (Zgierz)",,51.860510,19.406620,3,,0,,,0
2982,4755,"Gałczyńskiego-Łęczycka (Zgierz)",,51.859820,19.403930,3,,0,,,0
2983,4756,"Łęczycka (Zgierz)",,51.859820,19.403930,3,,0,,,0
2989,2157,"Rodziny Poznańskich-Dw. Łódź Fabryczna",,51.769920,19.465700,1,,0,,,0
2990,2158,"Rodziny Poznańskich-Dw. Łódź Fabryczna",,51.769830,19.465730,1,,0,,,0
2991,2159,"Rodziny Poznańskich-Dw. Łódź Fabryczna",,51.769920,19.466570,1,,0,,,0
2992,2160,"Rodziny Poznańskich-Dw. Łódź Fabryczna",,51.769870,19.466670,1,,0,,,0
2995,2163,"Dw. Łódź Fabryczna",,51.770150,19.468730,1,,0,,,0
2998,2166,"Dw. Łódź Fabryczna",,51.770070,19.471110,1,,0,,,0
2999,2167,"Dw. Łódź Fabryczna",,51.770350,19.468740,1,,0,,,0
3002,2171,"Rodziny Poznańskich-Dw. Łódź Fabryczna",,51.770010,19.471470,1,,0,,,0
3003,2172,"Rodziny Poznańskich-Dw. Łódź Fabryczna",,51.769890,19.472270,1,,0,,,0
3004,2202,"Kilińskiego-Nawrot",,51.763390,19.467110,1,,0,,,0
3005,2203,"Tramwajowa-Narutowicza",,51.772170,19.476710,1,,0,,,0
3007,2214,"Niciarniana-Dw. Łódź Zarzew NŻ",,51.751730,19.511450,1,,0,,,0
3011,1515,"Żeromskiego-Kopernika",,51.762440,19.447620,1,,0,,,0
3012,1760,"Widzewska-Wiejska",,51.759850,19.518210,1,,0,,,0
3014,1953,"Prądzyńskiego-Pokładowa NŻ",,51.722730,19.437900,1,,0,,,0
3015,2170,"Rodziny Poznańskich-Dw. Łódź Fabryczna",,51.770260,19.471120,1,,0,,,0
3016,2204,"Węglowa-Tramwajowa",,51.769490,19.476670,1,,0,,,0
3017,2205,"Węglowa-Tramwajowa",,51.769490,19.475590,1,,0,,,0
3018,2213,"Piłsudskiego-Niciarniana",,51.763550,19.507050,1,,0,,,0
3019,2215,"CKD parking",,51.772520,19.508320,1,,0,,,0
3020,2216,"CKD parking",,51.772660,19.508240,1,,0,,,0
3021,2217,"CKD szpital",,51.774380,19.508200,1,,0,,,0
3022,2218,"CKD szpital",,51.774490,19.507890,1,,0,,,0
3023,2223,"Marysin Tęczowa",,51.806370,19.480520,1,,0,,,0
3024,2228,"Bednarska-Unicka NŻ",,51.734640,19.465080,1,,0,,,0
3025,2229,"Bednarska-Unicka NŻ",,51.734640,19.464720,1,,0,,,0
3026,2230,"park Podolski",,51.740740,19.499160,1,,0,,,0
3027,2233,"Żubardź",,51.786540,19.418760,1,,0,,,0
3028,2234,"Inowrocławska-Lutomierska",,51.789850,19.419930,1,,0,,,0
3029,2235,"Ogrodowa-Karskiego",,51.777080,19.440130,1,,0,,,0
3031,2237,"Ogrodowa-Gdańska",,51.778140,19.446610,1,,0,,,0
3032,2238,"Ogrodowa-Gdańska",,51.778210,19.446370,1,,0,,,0
3033,2239,"Telefoniczna-Bystrzycka NŻ",,51.782930,19.493900,1,,0,,,0
3034,2247,"Leszczowa-Dw. Łódź Pabianicka NŻ",,51.726380,19.444660,1,,0,,,0
3036,2249,"Lodowa-Przybyszewskiego",,51.752470,19.520830,1,,0,,,0
3037,2250,"Przybyszewskiego-Mechaniczna (CRO) NŻ",,51.751530,19.518550,1,,0,,,0
3038,2251,"Papiernicza-Urząd Skarbowy Widzew",,51.747430,19.516670,1,,0,,,0
3039,2252,"Śląska-Niższa NŻ",,51.728070,19.491370,1,,0,,,0
3040,2254,"Śląska-Dw. Łódź Chojny",,51.727290,19.479700,1,,0,,,0
3041,2255,"Konspiracyjnego WP-Śląska",,51.728230,19.498170,1,,0,,,0
3042,2256,"Maratońska (wew.)-Plocka",,51.739030,19.397100,1,,0,,,0
3043,2257,"Maratońska (wew.)-Plocka",,51.739190,19.397250,1,,0,,,0
3044,2258,"Zenitowa-św. Franciszka",,51.727340,19.430410,1,,0,,,0
3045,2259,"Pustynna-Nowe Sady",,51.731160,19.432370,1,,0,,,0
3046,2260,"Nowe Sady-Pustynna",,51.731610,19.433580,1,,0,,,0
3047,2261,"Proletariacka-Wróblewskiego NŻ",,51.744900,19.442230,1,,0,,,0
3048,2262,"Włókniarzy-Zgierska NŻ",,51.815580,19.432290,1,,0,,,0
3050,2265,"Franciszkańska-Organizacji WiN NŻ",,51.788180,19.459570,1,,0,,,0
3051,2266,"Źródłowa-Wojska Polskiego NŻ",,51.785290,19.467650,1,,0,,,0
3053,2268,"Skrzydlata-Dojazdowa",,51.809620,19.472840,1,,0,,,0
3055,2270,"Tamka-Styrska NŻ",,51.780570,19.489250,1,,0,,,0
3057,2275,"Sternfelda-Powszechna",,51.717880,19.495720,1,,0,,,0
3058,2276,"Sternfelda-Powszechna",,51.718040,19.495530,1,,0,,,0
3059,2277,"Św. Wojciecha-Mieszczańska NŻ",,51.713340,19.491460,1,,0,,,0
3060,2278,"Św. Wojciecha-Mieszczańska NŻ",,51.713430,19.490880,1,,0,,,0
3061,2279,"Żeligowskiego-pl. Hallera",,51.769540,19.438430,1,,0,,,0
3062,2280,"Hipoteczna-Pojezierska",,51.797140,19.432760,1,,0,,,0
3063,2281,"Hipoteczna-Pojezierska",,51.797380,19.432680,1,,0,,,0
3064,2284,"Przędzalniana-Fabryczna",,51.757440,19.482120,1,,0,,,0
3065,2285,"Przędzalniana-Fabryczna",,51.758190,19.481880,1,,0,,,0
3066,2286,"Tuwima-Wysoka",,51.767310,19.478450,1,,0,,,0
3073,2293,"Zawiszy Czarnego-Franciszkańska NŻ",,51.786710,19.458420,1,,0,,,0
3074,2294,"Organizacji WiN-Franciszkańska",,51.787560,19.459160,1,,0,,,0
3075,2295,"Bednarska-Pabianicka",,51.735880,19.460230,1,,0,,,0
3076,2296,"Armii Krajowej-Batalionów Chłopskich",,51.742200,19.401420,1,,0,,,0
3077,2297,"Armii Krajowej-Batalionów Chłopskich",,51.742520,19.400920,1,,0,,,0
3078,2298,"Radwańska-Inżynierska NŻ",,51.751210,19.442690,1,,0,,,0
3079,2299,"Franciszkańska-Organizacji WiN NŻ",,51.787970,19.459460,1,,0,,,0
3080,2300,"Marysińska-Inflancka",,51.801340,19.466040,1,,0,,,0
3081,2301,"Karolew",,51.747870,19.421280,1,,0,,,0
3082,2302,"Młynek",,51.723450,19.520180,1,,0,,,0
3083,2303,"Uniwersytecka-Narutowicza",,51.772780,19.473420,1,,0,,,0
3084,2304,"Uniwersytecka-Narutowicza",,51.772870,19.474080,1,,0,,,0
3085,2305,"Wieńcowa-Wieśniacza NŻ",,51.726900,19.608400,1,,0,,,0
3086,2306,"Wieńcowa-Wieśniacza NŻ",,51.726800,19.608160,1,,0,,,0
3087,2307,"Skrzydlata-Dojazdowa",,51.809230,19.472660,1,,0,,,0
3089,2310,"Czahary-Prądzyńskiego",,51.723630,19.423350,1,,0,,,0
3090,2312,"Lodowa-Przybyszewskiego NŻ",,51.752630,19.520410,1,,0,,,0
3091,2313,"Sienkiewicza-Tuwima",,51.765670,19.461540,1,,0,,,0
3092,2314,"Sienkiewicza-Roosevelta",,51.761310,19.462490,1,,0,,,0
3093,3544,"1-go Maja 21 NŻ",,51.742560,19.327100,2,,0,,,0
3094,3545,"1-go Maja 34 NŻ",,51.742330,19.328820,2,,0,,,0
3095,3546,"1 Maja-Kolejowa (Konstantynów)",,51.740960,19.333440,1,,0,,,0
3096,3547,"1 Maja-Kolejowa (Konstantynów)",,51.739390,19.335090,1,,0,,,0
3097,3548,"pl. Wolności(Konstantynów)",,51.750400,19.313550,2,,0,,,0
3098,3549,"Jana Pawła II-pl. Kościuszki (Konst.)",,51.747770,19.324940,2,,0,,,0
3099,3550,"Jana Pawła II-pl. Kościuszki (Konst.)",,51.747650,19.324830,2,,0,,,0
3100,3551,"Jana Pawła II-Daszyńskiego (Konst.)",,51.748830,19.319540,2,,0,,,0
3101,3552,"Jana Pawła II-Moniuszki (Konstantynów)",,51.748980,19.318100,2,,0,,,0
3102,3553,"Jana Pawła II-pl. Wolności(Konstantynów)",,51.749950,19.313830,2,,0,,,0
3103,3554,"ŁSSE Langiewicza",,51.741240,19.352400,1,,0,,,0
3104,3555,"ŁSSE Łąkowa",,51.744320,19.352120,1,,0,,,0
3105,3556,"Kolejowa 28 NŻ (Konstantynów)",,51.736620,19.338550,1,,0,,,0
3106,3557,"Kościelna",,51.746680,19.360570,1,,0,,,0
3107,3543,"Popiełuszki-Łódzka (Zgierz)",,51.852710,19.408160,3,,0,,,0
3109,2316,"Zachodnia-Manufaktura",,51.780890,19.450860,1,,0,,,0
3110,9011,"przejazd techniczny",,51.791850,19.425580,1,,0,,,0
3129,2219,"Północna-Kilińskiego NŻ",,51.779530,19.460020,1,,0,,,0
3130,2221,"Północna-Sterlinga",,51.779930,19.467050,1,,0,,,0
3131,2222,"Północna-Sterlinga",,51.780230,19.469060,1,,0,,,0
3136,4115,"Zgierska-Biegańskiego",,51.800150,19.442620,1,,0,,,0
3137,4116,"Zgierska-Biegańskiego",,51.800160,19.442630,1,,0,,,0
3142,2318,"Św. Wojciecha-Rzgowska",,51.713510,19.488300,1,,0,,,0
3150,2319,"Św. Wojciecha-Rzgowska",,51.713600,19.488190,1,,0,,,0
3153,2325,"Paradna-Matek Polskich",,51.709670,19.479560,1,,0,,,0
3163,2320,"Zachodnia-Limanowskiego",,51.787670,19.449330,1,,0,,,0
3164,2321,"Franciszkańska-Kowalska",,51.795700,19.460490,1,,0,,,0
3165,2322,"Franciszkańska-Inflancka NŻ",,51.800090,19.461140,1,,0,,,0
3166,2323,"Pabianicka-Dubois NŻ",,51.714850,19.432540,1,,0,,,0
3167,2324,"Rzgowska-Zarzewska",,51.741670,19.463960,1,,0,,,0
3172,4795,"Pomorska-Tamka NŻ",,51.778230,19.489120,1,,0,,,0
3180,3560,"Rudzka-Katowicka NŻ (Rzgów)",,51.673390,19.477800,2,,0,,,0
3224,2326,"Nowe Sady-Elektronowa NŻ",,51.741300,19.434200,1,,0,,,0
3227,4817,"Krzemieniecka-Konstantynowska",,51.761860,19.408790,1,,0,,,0
3245,3561,"Tuszyńska-Wąwozowa NŻ (Rzgów)",,51.659340,19.492680,2,,0,,,0
3246,3562,"Tuszyńska-Wąwozowa NŻ (Rzgów)",,51.658820,19.492700,2,,0,,,0
3255,3563,"Łódzka 31 NŻ (Konstantynów)",,51.747000,19.337220,2,,0,,,0
3257,3565,"Łódzka 109 (Konstantynów)",,51.748170,19.351310,2,,0,,,0
3259,3567,"Łódzka 171 (Konstantynów)",,51.750650,19.367630,2,,0,,,0
3263,2244,"Jędrzejowska-Dw. Łódź Olechów Wiadukt NŻ",,51.723500,19.545470,1,,0,,,0
3264,2245,"Jędrzejowska-Dw. Łódź Olechów Wiadukt NŻ",,51.723550,19.544960,1,,0,,,0
3265,2246,"BSH Magazyn",,51.723350,19.550400,1,,0,,,0
3273,3569,"Stare Skoszewy 23 NŻ",,51.845340,19.632110,2,,0,,,0
3274,3570,"Stare Skoszewy 26 NŻ",,51.845170,19.631960,2,,0,,,0
3277,4852,"Sienkiewicza-Traugutta",,51.768840,19.461010,1,,0,,,0
3279,3496,"Łódzka-Bema NŻ (Rzgów)",,51.672090,19.484170,2,,0,,,0
3280,3497,"Łódzka-Kopernika NŻ (Rzgów)",,51.677590,19.480480,2,,0,,,0
3281,3571,"Łódzka-Ustronna NŻ (Rzgów)",,51.682430,19.477260,2,,0,,,0
3282,3572,"Łódzka-Sucharskiego NŻ (Rzgów)",,51.667820,19.486990,2,,0,,,0
3284,3733,"3 Maja-Moniuszki (Lutomiersk)",,51.752930,19.213000,2,,0,,,0
3285,3734,"3 Maja-Moniuszki (Lutomiersk)",,51.753170,19.212520,2,,0,,,0
3286,4855,"Lutomierska-Klasztor NŻ (Lutomiersk)",,51.758400,19.222690,2,,0,,,0
3287,4856,"Kilińskiego 66 NŻ (Kazimierz)",,51.761650,19.216540,2,,0,,,0
3288,4857,"Kilińskiego 50 NŻ (Kazimierz)",,51.763790,19.212910,2,,0,,,0
3289,4858,"pl. Kościuszki NŻ (Kazimierz)",,51.768090,19.204870,2,,0,,,0
3290,4859,"Kilińskiego 50 NŻ (Kazimierz)",,51.763950,19.212460,2,,0,,,0
3291,4860,"Kilińskiego 66 NŻ (Kazimierz)",,51.761280,19.216950,2,,0,,,0
3292,4861,"Kilińskiego-Klasztor NŻ (Lutomiersk)",,51.758710,19.221540,2,,0,,,0
3293,4862,"pl. Jana Pawła II (Lutomiersk)",,51.755150,19.211740,2,,0,,,0
3294,4863,"3 Maja-Kilińskiego/CPN NŻ (Lutomiersk)",,51.757610,19.221720,2,,0,,,0
3297,9203,"Zgierska-Helenówek-pętla",,51.829700,19.425730,1,,0,,,0
3298,3573,"Rokicińska-Prosta",,51.724770,19.639610,2,,0,,,0
3299,3574,"Marysińska-Rokicińska",,51.722440,19.645790,2,,0,,,0
3300,3575,"Marysińska-Rokicińska",,51.722460,19.645350,2,,0,,,0
3301,3576,"Rokicińska-Azaliowa",,51.719080,19.646670,2,,0,,,0
3302,3577,"Rokicińska-Azaliowa",,51.719690,19.646400,2,,0,,,0
3304,3579,"Rokicińska-Mleczarnia (Kraszew)",,51.710980,19.653020,2,,0,,,0
3305,3580,"Łódzka-Nowa",,51.727170,19.664200,2,,0,,,0
3306,3581,"Łódzka-Ludowa NŻ",,51.728330,19.674960,2,,0,,,0
3307,3582,"Łódzka-Malinowa",,51.729780,19.669460,2,,0,,,0
3308,3583,"Łódzka-Malinowa",,51.730080,19.669720,2,,0,,,0
3309,3584,"Łódzka-Główna",,51.726570,19.679860,2,,0,,,0
3310,3585,"Łódzka-Górna",,51.726910,19.679190,2,,0,,,0
3311,3586,"Główna-Okólna",,51.733880,19.685480,2,,0,,,0
3312,3587,"Główna-Okólna",,51.733830,19.685410,2,,0,,,0
3313,3588,"Główna-Bedońska",,51.739370,19.682150,2,,0,,,0
3314,3589,"Główna-Bedońska",,51.739350,19.682070,2,,0,,,0
3315,3590,"Łódzka-Nowa",,51.727250,19.664610,2,,0,,,0
3316,3591,"Łódzka-Ciesielskiego",,51.728090,19.675240,2,,0,,,0
3317,3592,"Główna-Rybna",,51.742420,19.680270,2,,0,,,0
3318,3593,"Główna-Rybna",,51.742020,19.680580,2,,0,,,0
3320,3595,"Janówka",,51.746700,19.677770,2,,0,,,0
3321,2317,"Zachodnia-Manufaktura",,51.780320,19.451520,1,,0,,,0
3334,2329,"Skalna-Juhasowa",,51.774250,19.543260,1,,0,,,0
3335,4871,"Wigury-Sienkiewicza",,51.756380,19.464440,1,,0,,,0
3336,2327,"Wydawnicza-Rodziny Grohmanów NŻ",,51.767370,19.485540,1,,0,,,0
3337,2328,"Wydawnicza-Rodziny Grohmanów NŻ",,51.767630,19.484990,1,,0,,,0
3339,2330,"CH Tulipan",,51.764110,19.497410,1,,0,,,0
3340,2331,"CH Tulipan",,51.764320,19.493830,1,,0,,,0
3343,4412,"Tymienieckiego-Kilińskiego",,51.751700,19.473700,1,,0,,,0
3358,2333,"Rokicińska-Dunikowskiego NŻ",,51.747510,19.599280,1,,0,,,0
3359,2334,"Rokicińska-Dunikowskiego NŻ",,51.747110,19.600210,1,,0,,,0
3360,2335,"Proletariacka-Sowia NŻ",,51.747930,19.441540,1,,0,,,0
3361,2336,"BSH Fabryka",,51.719820,19.548810,1,,0,,,0
3364,2337,"Kilińskiego-Jaracza",,51.773180,19.462910,1,,0,,,0
3365,2338,"CH Tulipan",,51.764160,19.497420,1,,0,,,0
3393,2341,"Ogrodowa-cm. Ogrodowa",,51.775970,19.437200,1,,0,,,0
3394,2342,"Ogrodowa-cm. Ogrodowa",,51.775720,19.436170,1,,0,,,0
3395,2345,"Żwirki-Piotrkowska",,51.755870,19.458820,1,,0,,,0
3396,2346,"Tymienieckiego-Przędzalniana",,51.753960,19.482560,1,,0,,,0
3397,2347,"Tomaszowska-Ofiar Terroryzmu 11 Września",,51.724460,19.538070,1,,0,,,0
3398,2343,"Łazowskiego-Kosynierów Gdyńskich",,51.717020,19.473010,1,,0,,,0
3399,2344,"Paradna-Ustronna",,51.711730,19.467860,1,,0,,,0
3404,2348,"Obywatelska-Cieszkowskiego NŻ",,51.736310,19.446280,1,,0,,,0
3405,2349,"Obywatelska-Cieszkowskiego",,51.736530,19.447040,1,,0,,,0
3422,2354,"Ustronna-Świecka NŻ",,51.704030,19.472100,1,,0,,,0
3423,2355,"Ustronna-Przednia NŻ",,51.701860,19.474290,1,,0,,,0
3427,2055,"Józefiaka-Rokicińska NŻ",,51.750150,19.589430,1,,0,,,0
3443,2173,"Zagajnikowa-Radlińskiej NŻ",,51.798990,19.477200,1,,0,,,0
3444,2356,"Telefoniczna-Telefoniczna Zajezdnia NŻ",,51.782350,19.507450,1,,0,,,0
3445,2357,"Telefoniczna-Telefoniczna Zajezdnia NŻ",,51.782430,19.507500,1,,0,,,0
3448,2351,"Hetmańska-Zakładowa",,51.740810,19.569260,1,,0,,,0
3451,2359,"Limanowskiego-zaj. Limanowskiego NŻ",,51.791570,19.424250,1,,0,,,0
3456,1484,"Zielona-pl. Hallera",,51.768890,19.437500,1,,0,,,0
3461,4959,"Grabina-Grabina/Lipowa NŻ",,51.819710,19.597200,2,,0,,,0
3462,4960,"Grabina-Grabina/Lipowa NŻ",,51.819640,19.597340,2,,0,,,0
3463,4961,"Janów 6c NŻ",,51.816740,19.609610,2,,0,,,0
3464,4962,"Janów 7b NŻ",,51.816830,19.609680,2,,0,,,0
3470,4951,"Zielona-1 Maja",,51.768870,19.432780,1,,0,,,0
3471,4952,"Zielona-1 Maja",,51.769020,19.433400,1,,0,,,0
3473,4415,"Więckowskiego-Zachodnia",,51.772400,19.452260,1,,0,,,0
3474,4954,"Struga-Kościuszki",,51.765160,19.452220,1,,0,,,0
3475,4967,"Kilińskiego-Słowackiego",,51.735990,19.478770,1,,0,,,0
3478,2358,"Sienkiewicza-Roosevelta",,51.761230,19.462610,1,,0,,,0
3479,7004,"pl. Niepodległości",,51.740360,19.464680,1,,0,,,0
3495,4109,"Żeromskiego-Struga",,51.764370,19.447060,1,,0,,,0
3498,2360,"Mierzejowa-Długa NŻ",,51.701600,19.419770,1,,0,,,0
3499,2361,"Mierzejowa-Długa NŻ",,51.701570,19.418350,1,,0,,,0
3500,2362,"Mierzejowa-Koszalińska NŻ",,51.701730,19.426720,1,,0,,,0
3501,2363,"Mierzejowa-Koszalińska NŻ",,51.701740,19.426020,1,,0,,,0
3502,2364,"Farna-Albańska NŻ",,51.700160,19.431130,1,,0,,,0
3503,2365,"Farna-Albańska NŻ",,51.700300,19.430250,1,,0,,,0
3504,2366,"Farna-Plażowa NŻ",,51.699720,19.438260,1,,0,,,0
3505,2367,"Farna-Plażowa NŻ",,51.699700,19.438190,1,,0,,,0
3506,2373,"Compal",,51.721580,19.553080,1,,0,,,0
3513,2374,"Świtezianki-Dw. Łódź Radogoszcz Wsch. NŻ",,51.824980,19.443420,1,,0,,,0
3514,2375,"Świtezianki-Dw. Łódź Radogoszcz Wsch. NŻ",,51.824700,19.443770,1,,0,,,0
3521,2376,"Zarzewska-Kilińskiego",,51.743240,19.474970,1,,0,,,0
3522,2377,"Zarzewska-Kilińskiego",,51.743400,19.475390,1,,0,,,0
3523,2378,"Zarzewska-Praska NŻ",,51.742600,19.471400,1,,0,,,0
3524,2380,"Kilińskiego 300",,51.734480,19.479820,1,,0,,,0
3526,2379,"Zarzewska-Praska NŻ",,51.742690,19.471430,1,,0,,,0
3541,5209,"cm. Zarzew",,51.748350,19.520720,1,,0,,,0
3546,2386,"Brukowa-Zbąszyńska NŻ",,51.798080,19.410070,1,,0,,,0
3561,2387,"Żeromskiego-Mickiewicza NŻ",,51.759270,19.448290,1,,0,,,0
3567,5220,"Sporna 5 NŻ",,51.782410,19.478240,1,,0,,,0
3569,2381,"Traktorowa-Łanowa",,51.794440,19.393760,1,,0,,,0
3612,2388,"Politechniki-park im. Klepacza NŻ",,51.748050,19.450580,1,,0,,,0
3613,2389,"Politechniki-park im. Klepacza NŻ",,51.748170,19.450260,1,,0,,,0
3614,2390,"Żeromskiego-Żwirki NŻ",,51.754790,19.448790,1,,0,,,0
3619,2391,"6 Sierpnia-Pogonowskiego NŻ",,51.767700,19.443570,1,,0,,,0
3627,2392,"Strażacka-Tuszyńska NŻ",,51.718240,19.479560,1,,0,,,0
3631,2393,"Telefoniczna-Tamka NŻ",,51.783320,19.489370,1,,0,,,0
3632,2394,"Tamka-Telefoniczna NŻ",,51.782610,19.488820,1,,0,,,0
3634,5280,"Kilińskiego-Dw. Łódź Chojny",,51.728020,19.480300,1,,0,,,0
3635,2396,"Kaczeńcowa-Lniana",,51.795940,19.385370,1,,0,,,0
3636,5281,"Żeromskiego-Struga",,51.765410,19.446940,1,,0,,,0
3637,2368,"Jędrzejowska-Tomaszowska NŻ",,51.722400,19.537200,1,,0,,,0
3638,2369,"Jędrzejowska-Tomaszowska NŻ",,51.722050,19.534350,1,,0,,,0
3639,2370,"Jędrzejowska 47 NŻ",,51.720730,19.530590,1,,0,,,0
3640,2371,"Jędrzejowska 47 NŻ",,51.720540,19.530520,1,,0,,,0
3641,2372,"Jędrzejowska 45A NŻ",,51.717070,19.532940,1,,0,,,0
3642,5283,"Srebrzyńska-Kasprzaka NŻ",,51.774080,19.429680,1,,0,,,0
3669,3608,"Zamkowa-Staszewskiego (Pab.)",,51.664940,19.341590,2,,0,,,0
3670,3609,"Łódzka-Widzew-Żdżary",,51.683570,19.403400,1,,0,,,0
3675,2399,"Struga-Żeromskiego",,51.764660,19.446530,1,,0,,,0
3676,2400,"Jędrzejowska 45A NŻ",,51.715880,19.531350,1,,0,,,0
3677,2401,"Jędrzejowska 43A NŻ",,51.714010,19.523740,1,,0,,,0
3678,2402,"Jędrzejowska 43A NŻ",,51.713630,19.521680,1,,0,,,0
3679,2403,"Jędrzejów Przem. Zachód",,51.712750,19.517580,1,,0,,,0
3681,2404,"Bronisin-600-lecia miasta Łodzi NŻ",,51.699200,19.522940,1,,0,,,0
3682,2405,"Bronisin-600-lecia miasta Łodzi NŻ",,51.699140,19.522380,1,,0,,,0
3687,2407,"Sterlinga-Rewolucji 1905r.",,51.775030,19.469260,1,,0,,,0
3688,2406,"Sterlinga-Rewolucji 1905r.",,51.775110,19.469370,1,,0,,,0
3699,2395,"pl. Wolności",,51.776990,19.454150,1,,0,,,0
3704,2398,"Franciszkańska-Wojska Polskiego",,51.785420,19.459980,1,,0,,,0
3714,2412,"Konstantynowska-Smulska",,51.751600,19.371790,1,,0,,,0
3715,2413,"Konstantynowska-Zaj. Muzealna Brus NŻ",,51.753480,19.381770,1,,0,,,0
3716,2414,"Konstantynowska-Zaj. Muzealna Brus NŻ",,51.753570,19.381830,1,,0,,,0
3717,9102,"Konstantynów Łódzki-Srebrna mijanka",,51.748700,19.356220,2,,0,,,0
3718,9103,"Konstantynów Łódzki-Gdańska mijanka",,51.747710,19.344920,2,,0,,,0
3719,9107,"Konstantynów Łódzki-Srebrna mijanka",,51.748700,19.356220,2,,0,,,0
3720,9108,"Konstantynów Łódzki-Gdańska mijanka",,51.747710,19.344920,2,,0,,,0
3721,9110,"Krańcowa mijanka",,51.758310,19.395670,1,,0,,,0
3722,9111,"Krańcowa mijanka",,51.758310,19.395670,1,,0,,,0
3726,2411,"Konstantynowska-Smulska",,51.751430,19.371380,1,,0,,,0
3727,2415,"Konstantynowska-Krańcowa NŻ",,51.759390,19.399210,1,,0,,,0
3728,2416,"Konstantynowska-Krańcowa NŻ",,51.759400,19.399020,1,,0,,,0
3729,2408,"Klonowa-Lutomierska",,51.788510,19.428560,1,,0,,,0
3730,2409,"Klonowa-Lutomierska",,51.787390,19.427770,1,,0,,,0
3731,2410,"Klonowa-Lutomierska",,51.788460,19.428660,1,,0,,,0
3732,2417,"Tatrzańska-Rydla",,51.736060,19.494480,1,,0,,,0
3739,2418,"3 Maja-Korczaka NŻ",,51.718210,19.441250,1,,0,,,0
3740,2419,"3 Maja-Korczaka NŻ",,51.718030,19.442320,1,,0,,,0
3746,2420,"Tatrzańska-Brzechwy NŻ",,51.746490,19.493770,1,,0,,,0
3747,2421,"Niciarniana-Dw. Łódź Zarzew NŻ",,51.750490,19.512550,1,,0,,,0
3748,2422,"Maciejewskiego-Dw. Łódź Zarzew",,51.750740,19.513810,1,,0,,,0
3749,2423,"Papiernicza-Urząd Skarbowy Widzew",,51.747510,19.516290,1,,0,,,0
3751,5350,"Przybyszewskiego-Nurta-Kaszyńskiego",,51.749830,19.505590,1,,0,,,0
3752,5351,"Przybyszewskiego-Zapadła",,51.748880,19.499110,1,,0,,,0
3753,3624,"Łódzka 12 NŻ (Konstantynów)",,51.747020,19.328460,1,,0,,,0
3754,3625,"Łódzka-Gdańska NŻ (Konstantynów)",,0.000000,0.000000,1,,0,,,0
3755,3626,"Łódzka-Armii Krajowej NŻ (Konst.)",,0.000000,0.000000,1,,0,,,0
3756,3627,"Łódzka-Krótka NŻ (Konstantynów)",,0.000000,0.000000,1,,0,,,0
3757,2426,"Pomorska-Popielarnia NŻ",,51.771080,19.574540,1,,0,,,0
3758,2427,"Pomorska-Popielarnia NŻ",,51.770530,19.573400,1,,0,,,0
3762,2253,"Śląska-Niższa",,51.728120,19.490840,1,,0,,,0
3764,5353,"Konspiracyjnego WP-Śląska",,51.728130,19.498160,1,,0,,,0
3771,2428,"Strykowska-Wojska Polskiego NŻ",,51.793550,19.488710,1,,0,,,0
3774,2431,"Sterlinga-Północna",,51.779730,19.468400,1,,0,,,0
3779,5362,"Traugutta-Sienkiewicza",,51.769080,19.461450,1,,0,,,0
3780,2433,"Starogardzka-Odrzańska",,51.712920,19.425340,1,,0,,,0
3781,2442,"Bronisin-Konspiracji NŻ",,51.694520,19.528530,1,,0,,,0
3782,2443,"Bronisin-Konspiracji NŻ",,51.694530,19.528450,1,,0,,,0
3783,2444,"Bronisin-Brójecka NŻ",,51.691210,19.529170,1,,0,,,0
3784,2432,"Waltera Janke-Nowe Sady NŻ",,51.741930,19.422140,1,,0,,,0
3787,3628,"Główna-1 Maja",,51.729610,19.684180,2,,0,,,0
3788,3629,"Główna-1 Maja",,51.729710,19.684170,2,,0,,,0
3789,2445,"Waltera Janke-Nowe Sady NŻ",,51.741850,19.421420,1,,0,,,0
3792,5369,"Podchorążych-park Podchorążych",,51.782190,19.363580,1,,0,,,0
3798,4135,"Szczecińska-Wersalska",,51.810530,19.375730,1,,0,,,0
3799,4136,"Szczecińska-Wersalska",,51.811230,19.376390,1,,0,,,0
3802,5375,"Felińskiego-Tatrzańska",,51.732620,19.494590,1,,0,,,0
3803,5380,"Zakładowa-Józefiaka NŻ",,51.737610,19.585130,1,,0,,,0
3804,5381,"Olechowska-Zakładowa NŻ",,51.741660,19.559060,1,,0,,,0
3806,5832,"Olechowska-Zakładowa NŻ",,51.741690,19.558950,1,,0,,,0
3807,2447,"Tuszyńska-Paderewskiego NŻ",,51.729670,19.468970,1,,0,,,0
3808,2448,"Tuszyńska-Piaseczna NŻ",,51.732100,19.466800,1,,0,,,0
3809,2449,"Tuszyńska-Piaseczna NŻ",,51.732100,19.466730,1,,0,,,0
3810,5371,"Żeromskiego-Radwańska",,51.752290,19.449800,1,,0,,,0
3813,2440,"Szczecińska-Rąbieńska",,51.790150,19.354540,1,,0,,,0
3815,2450,"Żeromskiego-Więckowskiego (LO nr 1)",,51.772500,19.445340,1,,0,,,0
3816,2452,"Zgierska-Brzoskwiniowa NŻ",,51.825830,19.428140,1,,0,,,0
3817,5384,"Franciszkańska-Inflancka",,51.799980,19.460900,1,,0,,,0
3818,5385,"Franciszkańska-Kowalska",,51.795670,19.460410,1,,0,,,0
3819,5390,"Łagiewnicka-Inflancka",,51.800250,19.456810,1,,0,,,0
